,state,divisionnm_x,pollingplaceid,pollingplacenm,premisesnm,premisessuburb,premisespostcode,latitude,longitude,liberal/national coalition votes,liberal/national coalition percentage,australian labor party votes,australian labor party percentage,totalvotes,SA2_MAIN16,SA2_NAME16,GCC_CODE16,STE_NAME16,AREASQKM16
0,ACT,Bean,93925,Belconnen BEAN PPVC,Belconnen Community Centre,BELCONNEN,2900.0,-35.23893029999999,149.069655,288,40.79,418,59.21,706,801011002,Belconnen,8ACTE,Australian Capital Territory,4.4261
1,ACT,Bean,93927,BLV Bean PPVC,BLV Canberra,CANBERRA CITY,2601.0,-35.27733370000001,149.1268694,2,15.38,11,84.62,13,801051053,Civic,8ACTE,Australian Capital Territory,1.4309
2,ACT,Bean,11877,Bonython,Bonython Primary School,BONYTHON,2905.0,-35.4318,149.083,504,37.89,826,62.11,1330,801071072,Bonython,8ACTE,Australian Capital Territory,2.9045
3,ACT,Bean,11452,Calwell,Calwell High School,CALWELL,2905.0,-35.440670000000004,149.1176,794,42.1,1092,57.9,1886,801071073,Calwell,8ACTE,Australian Capital Territory,3.8922
4,ACT,Bean,8761,Chapman,Chapman Primary School,CHAPMAN,2611.0,-35.3564,149.042,804,36.4,1405,63.6,2209,801081091,Chapman,8ACTE,Australian Capital Territory,1.8558
5,ACT,Bean,8763,Chisholm,Caroline Chisholm School,CHISHOLM,2905.0,-35.4195217,149.12253859999998,625,43.65,807,56.35,1432,801071074,Chisholm,8ACTE,Australian Capital Territory,3.1046
6,ACT,Bean,93916,City (Bean),Pilgrim House,CANBERRA CITY,2601.0,-35.2767018,149.1290814,26,28.26,66,71.74,92,801051053,Civic,8ACTE,Australian Capital Territory,1.4309
7,ACT,Bean,93922,City BEAN PPVC,Canberra Museum and Gallery,CANBERRA CITY,2601.0,-35.2805169,149.13086140000001,888,36.85,1522,63.15,2410,801051053,Civic,8ACTE,Australian Capital Territory,1.4309
8,ACT,Bean,31298,Conder,Charles Conder Primary School,CONDER,2906.0,-35.4649,149.09799999999998,921,44.8,1135,55.2,2056,801071075,Conder,8ACTE,Australian Capital Territory,4.5237
9,ACT,Bean,83835,Conder North,Saint Clare of Assisi Primary School,CONDER,2906.0,-35.4597283,149.0947893,431,46.05,505,53.95,936,801071075,Conder,8ACTE,Australian Capital Territory,4.5237
10,ACT,Bean,82523,Coombs,Charles Weston School,COOMBS,2611.0,-35.3226028,149.04284840000003,749,35.68,1350,64.32,2099,801101135,Coombs,8ACTE,Australian Capital Territory,2.3179
11,ACT,Bean,93906,Curtin (Bean),Curtin Primary School,CURTIN,2605.0,-35.3314386,149.0803543,86,37.39,144,62.61,230,801091100,Curtin,8ACTE,Australian Capital Territory,4.8079
12,ACT,Bean,93932,Divisional Office (PREPOLL),Divisional Office,CANBERRA CITY,2601.0,-35.27733370000001,149.1268694,33,44.59,41,55.41,74,801051053,Civic,8ACTE,Australian Capital Territory,1.4309
13,ACT,Bean,8767,Duffy,Duffy Primary School,DUFFY,2611.0,-35.3347,149.032,493,28.76,1221,71.24,1714,801081092,Duffy,8ACTE,Australian Capital Territory,2.7964
14,ACT,Bean,8768,Fadden,Fadden Primary School,FADDEN,2904.0,-35.4044,149.118,759,45.18,921,54.82,1680,801071076,Fadden,8ACTE,Australian Capital Territory,3.1064
15,ACT,Bean,8769,Farrer,Farrer Primary School,FARRER,2607.0,-35.379,149.107,895,41.17,1279,58.83,2174,801091101,Farrer,8ACTE,Australian Capital Territory,2.0687
16,ACT,Bean,93913,Garran (Bean),Garran Primary School,GARRAN,2605.0,-35.34466870000001,149.1029475,190,40.51,279,59.49,469,801091102,Garran,8ACTE,Australian Capital Territory,2.6965
17,ACT,Bean,8771,Gilmore,Gilmore Primary School,GILMORE,2905.0,-35.4147,149.13299999999998,691,44.52,861,55.48,1552,801071077,Gilmore,8ACTE,Australian Capital Territory,2.0454
18,ACT,Bean,12072,Gordon,Gordon Primary School,GORDON,2906.0,-35.4555,149.08700000000002,1068,42.7,1433,57.3,2501,801071078,Gordon (ACT),8ACTE,Australian Capital Territory,4.4416
19,ACT,Bean,83837,Gordon North,Covenant Christian School,GORDON,2906.0,-35.4397627,149.0901681,275,51.69,257,48.31,532,801071078,Gordon (ACT),8ACTE,Australian Capital Territory,4.4416
20,ACT,Bean,8772,Gowrie,Gowrie Primary School,GOWRIE,2904.0,-35.4136,149.111,647,43.08,855,56.92,1502,801071079,Gowrie (ACT),8ACTE,Australian Capital Territory,1.9317
21,ACT,Bean,97445,Greenway,Lake Tuggeranong College,GREENWAY,2900.0,-35.4137385,149.06825940000002,559,43.23,734,56.77,1293,801071080,Greenway,8ACTE,Australian Capital Territory,5.307
22,ACT,Bean,93929,Gungahlin BEAN PPVC,Quokka Pavilion,MITCHELL,2911.0,-35.2193236,149.1451731,177,51.6,166,48.4,343,801041045,Mitchell,8ACTE,Australian Capital Territory,7.3847
23,ACT,Bean,8773,Holder,St Jude's Primary School,HOLDER,2611.0,-35.3348,149.05,668,40.41,985,59.59,1653,801081094,Holder,8ACTE,Australian Capital Territory,1.8719
24,ACT,Bean,93908,Hughes (Bean),Hughes Primary School,HUGHES,2605.0,-35.332175,149.0910366,92,43.19,121,56.81,213,801091103,Hughes,8ACTE,Australian Capital Territory,1.7894
25,ACT,Bean,8884,Isabella Plains,Isabella Plains Early Childhood School,ISABELLA PLAINS,2905.0,-35.4287,149.089,731,42.21,1001,57.79,1732,801071081,Isabella Plains,8ACTE,Australian Capital Territory,2.495
26,ACT,Bean,8776,Kambah North,Taylor Primary School,KAMBAH,2902.0,-35.3784,149.065,543,38.16,880,61.84,1423,801071082,Kambah,8ACTE,Australian Capital Territory,11.3361
27,ACT,Bean,8777,Kambah South,Namadgi School,KAMBAH,2902.0,-35.3924756,149.06753700000002,641,34.7,1206,65.3,1847,801071082,Kambah,8ACTE,Australian Capital Territory,11.3361
28,ACT,Bean,8778,Kambah West,St Thomas the Apostle School,KAMBAH,2902.0,-35.3806,149.053,881,39.83,1331,60.17,2212,801071082,Kambah,8ACTE,Australian Capital Territory,11.3361
29,ACT,Bean,93909,Lyons (Bean),Lyons Early Childhood School,LYONS,2606.0,-35.342,149.076,124,33.97,241,66.03,365,801091105,Lyons (ACT),8ACTE,Australian Capital Territory,2.2619
30,ACT,Bean,8780,Mawson,Mawson Primary School,MAWSON,2607.0,-35.3585,149.097,701,38.86,1103,61.14,1804,801091106,Mawson,8ACTE,Australian Capital Territory,2.1128
31,ACT,Bean,8781,Monash,Monash Primary School,MONASH,2904.0,-35.4151,149.089,806,43.76,1036,56.24,1842,801071084,Monash,8ACTE,Australian Capital Territory,3.4119
32,ACT,Bean,65739,Norfolk Island,Taylors Rd,NORFOLK ISLAND,2899.0,-29.034671999999997,167.95324399999998,145,52.54,131,47.46,276,901041004,Norfolk Island,9OTER,Other Territories,38.6509
33,ACT,Bean,66153,Norfolk Island PPVC,79c Taylors Rd,NORFOLK ISLAND,2899.0,-29.0409807,167.9560078,157,57.3,117,42.7,274,901041004,Norfolk Island,9OTER,Other Territories,38.6509
35,ACT,Bean,93928,Parkes (Bean),Old Parliament House,PARKES,2600.0,-35.30196110000001,149.1299644,130,23.99,412,76.01,542,801061068,Parkes (ACT) - South,8ACTE,Australian Capital Territory,1.8118
36,ACT,Bean,97479,Parkes BEAN PPVC,Old Parliament House,PARKES,2600.0,-35.30196110000001,149.1299644,350,36.92,598,63.08,948,801061068,Parkes (ACT) - South,8ACTE,Australian Capital Territory,1.8118
37,ACT,Bean,8784,Pearce,Melrose High School,PEARCE,2607.0,-35.3637,149.089,808,38.24,1305,61.76,2113,801091108,Pearce,8ACTE,Australian Capital Territory,1.7032
38,ACT,Bean,8786,Richardson,Richardson Primary School,RICHARDSON,2905.0,-35.4287,149.114,529,43.9,676,56.1,1205,801071087,Richardson,8ACTE,Australian Capital Territory,2.2371
42,ACT,Bean,8788,Tharwa,Tharwa Community Room,THARWA,2620.0,-35.5088,149.06799999999998,55,49.11,57,50.89,112,801111140,ACT - South West,8ACTE,Australian Capital Territory,416.6124
43,ACT,Bean,11878,Theodore,Theodore Primary School,THEODORE,2905.0,-35.4477,149.124,634,44.15,802,55.85,1436,801071088,Theodore,8ACTE,Australian Capital Territory,3.1353
44,ACT,Bean,32704,Tuggeranong BEAN PPVC,Centrepoint,GREENWAY,2900.0,-35.415369399999996,149.06785680000002,8200,48.46,8722,51.54,16922,801071080,Greenway,8ACTE,Australian Capital Territory,5.307
45,ACT,Bean,8790,Wanniassa,Wanniassa Senior Campus,WANNIASSA,2903.0,-35.3947,149.086,658,41.72,919,58.28,1577,801071090,Wanniassa,8ACTE,Australian Capital Territory,5.3975
46,ACT,Bean,8791,Wanniassa Hills,Wanniassa Hills Primary School,WANNIASSA,2903.0,-35.391999999999996,149.096,631,36.92,1078,63.08,1709,801071090,Wanniassa,8ACTE,Australian Capital Territory,5.3975
47,ACT,Bean,8792,Waramanga,Arawang Primary School,WARAMANGA,2611.0,-35.355,149.06,624,33.32,1249,66.68,1873,801081097,Waramanga,8ACTE,Australian Capital Territory,1.7098
48,ACT,Bean,83841,Waramanga West,Mount Stromlo High School,WARAMANGA,2611.0,-35.3548805,149.0538306,206,34.33,394,65.67,600,801081097,Waramanga,8ACTE,Australian Capital Territory,1.7098
49,ACT,Bean,8793,Weston,Weston Creek Community Centre,WESTON,2611.0,-35.3412,149.054,490,37.66,811,62.34,1301,801081098,Weston,8ACTE,Australian Capital Territory,3.8462
50,ACT,Bean,32705,Woden BEAN PPVC,Cosmopolitan Building,WODEN,2606.0,-35.3442899,149.08632880000002,4625,44.5,5768,55.5,10393,801091109,Phillip,8ACTE,Australian Capital Territory,2.5749
51,ACT,Canberra,8801,Ainslie North,North Ainslie Primary School,AINSLIE,2602.0,-35.2543,149.14700000000002,331,17.31,1581,82.69,1912,801051050,Ainslie,8ACTE,Australian Capital Territory,3.5405
52,ACT,Canberra,8803,Aranda (Canberra),Aranda Primary School,ARANDA,2614.0,-35.256,149.08,406,22.22,1421,77.78,1827,801011001,Aranda,8ACTE,Australian Capital Territory,1.5631
53,ACT,Canberra,8829,Barton,Telopea Park School,BARTON,2600.0,-35.3151,149.135,665,32.52,1380,67.48,2045,801061129,Barton,8ACTE,Australian Capital Territory,1.1901
54,ACT,Canberra,93968,Belconnen (Canberra),Lake Ginninderra College,BELCONNEN,2617.0,-35.2391,149.07399999999998,151,32.33,316,67.67,467,801011002,Belconnen,8ACTE,Australian Capital Territory,4.4261
55,ACT,Canberra,64583,Belconnen CANBERRA PPVC,Belconnen Community Centre,BELCONNEN,2900.0,-35.238903799999996,149.070109,2463,38.9,3868,61.1,6331,801011002,Belconnen,8ACTE,Australian Capital Territory,4.4261
56,ACT,Canberra,65504,BLV Canberra PPVC,BLV Canberra,CANBERRA CITY,2601.0,-35.2790544,149.1263791,9,45.0,11,55.0,20,801051053,Civic,8ACTE,Australian Capital Territory,1.4309
57,ACT,Canberra,8802,Braddon,Ainslie School,BRADDON,2601.0,-35.27363,149.14001000000002,485,21.41,1780,78.59,2265,801051051,Braddon,8ACTE,Australian Capital Territory,1.4078
58,ACT,Canberra,83849,Bruce (Canberra),Radford College,BRUCE,2617.0,-35.244280200000006,149.0884075,361,32.32,756,67.68,1117,801011003,Bruce,8ACTE,Australian Capital Territory,5.7975
59,ACT,Canberra,8806,Campbell,Campbell Primary School,CAMPBELL,2601.0,-35.2903,149.156,911,42.22,1247,57.78,2158,801051124,Campbell,8ACTE,Australian Capital Territory,3.1593
60,ACT,Canberra,8808,City (Canberra),Pilgrim House,CANBERRA CITY,2601.0,-35.2767018,149.1290814,346,24.52,1065,75.48,1411,801051053,Civic,8ACTE,Australian Capital Territory,1.4309
61,ACT,Canberra,58708,City CANBERRA PPVC,Canberra Museum and Gallery,CANBERRA CITY,2601.0,-35.2805169,149.13086140000001,2844,31.6,6155,68.4,8999,801051053,Civic,8ACTE,Australian Capital Territory,1.4309
62,ACT,Canberra,8764,Curtin (Canberra),Curtin Primary School,CURTIN,2605.0,-35.3314386,149.0803543,623,31.39,1362,68.61,1985,801091100,Curtin,8ACTE,Australian Capital Territory,4.8079
63,ACT,Canberra,8766,Deakin,CGGS Junior School,DEAKIN,2600.0,-35.3125,149.111,621,54.76,513,45.24,1134,801061062,Deakin,8ACTE,Australian Capital Territory,3.5714
64,ACT,Canberra,8809,Dickson,Daramalan College,DICKSON,2602.0,-35.2535,149.139,263,27.83,682,72.17,945,801051054,Dickson,8ACTE,Australian Capital Territory,1.5779
65,ACT,Canberra,83852,Dickson East,Dickson College,DICKSON,2602.0,-35.2487237,149.15412759999998,180,20.69,690,79.31,870,801051054,Dickson,8ACTE,Australian Capital Territory,1.5779
66,ACT,Canberra,30092,Divisional Office (PREPOLL),Divisional Office,CANBERRA CITY,2601.0,-35.270926,149.129899,92,29.68,218,70.32,310,801051060,Turner,8ACTE,Australian Capital Territory,1.5377
67,ACT,Canberra,82525,Downer,Downer Community Centre,DOWNER,2602.0,-35.2445,149.145,216,19.05,918,80.95,1134,801051055,Downer,8ACTE,Australian Capital Territory,1.6342
68,ACT,Canberra,8794,Garran (Canberra),Garran Primary School,GARRAN,2605.0,-35.34466870000001,149.1029475,318,36.34,557,63.66,875,801091102,Garran,8ACTE,Australian Capital Territory,2.6965
69,ACT,Canberra,8816,Giralang (Canberra),Giralang Primary School,GIRALANG,2617.0,-35.2137,149.094,445,33.18,896,66.82,1341,801011011,Giralang,8ACTE,Australian Capital Territory,2.4467
70,ACT,Canberra,8817,Griffith,St Edmund's College,GRIFFITH,2603.0,-35.3222,149.145,524,37.48,874,62.52,1398,801061064,Griffith (ACT),8ACTE,Australian Capital Territory,2.7559
71,ACT,Canberra,65981,Gungahlin CANBERRA PPVC,Quokka Pavilion,MITCHELL,2911.0,-35.2277375,149.1486707,869,36.96,1482,63.04,2351,801041119,Kenny,8ACTE,Australian Capital Territory,6.1708
72,ACT,Canberra,8774,Hughes (Canberra),Hughes Primary School,HUGHES,2605.0,-35.332175,149.0910366,540,36.81,927,63.19,1467,801091103,Hughes,8ACTE,Australian Capital Territory,1.7894
73,ACT,Canberra,8823,Kaleen,Kaleen Primary School,KALEEN,2617.0,-35.2248,149.114,651,36.86,1115,63.14,1766,801011016,Kaleen,8ACTE,Australian Capital Territory,6.0268
74,ACT,Canberra,8824,Kaleen South,Maribyrnong Primary School,KALEEN,2617.0,-35.2351,149.102,464,32.72,954,67.28,1418,801011016,Kaleen,8ACTE,Australian Capital Territory,6.0268
75,ACT,Canberra,8826,Lyneham,Lyneham Primary School,LYNEHAM,2602.0,-35.2515,149.125,476,20.46,1850,79.54,2326,801051057,Lyneham,8ACTE,Australian Capital Territory,5.4776
76,ACT,Canberra,83856,Lyneham East,Lyneham High School,LYNEHAM,2602.0,-35.252484499999994,149.1307017,175,22.04,619,77.96,794,801051057,Lyneham,8ACTE,Australian Capital Territory,5.4776
77,ACT,Canberra,8779,Lyons (Canberra),Lyons Early Childhood School,LYONS,2606.0,-35.342,149.076,259,31.09,574,68.91,833,801091105,Lyons (ACT),8ACTE,Australian Capital Territory,2.2619
78,ACT,Canberra,8828,Macquarie (Canberra),Macquarie Primary School,MACQUARIE,2614.0,-35.2501,149.059,342,26.61,943,73.39,1285,801011020,Macquarie,8ACTE,Australian Capital Territory,1.7004
79,ACT,Canberra,8782,Narrabundah,Narrabundah Early Childhood School,NARRABUNDAH,2604.0,-35.3286,149.15,444,31.94,946,68.06,1390,801061067,Narrabundah,8ACTE,Australian Capital Territory,4.0907
80,ACT,Canberra,8783,Oaks Estate,Oaks Estate Community Hall,OAKS ESTATE,2620.0,-35.3424,149.231,53,34.42,101,65.58,154,801031113,Canberra East,8ACTE,Australian Capital Territory,31.0618
81,ACT,Canberra,93976,Page (Canberra),St Matthew's School,PAGE,2614.0,-35.2398,149.042,174,38.58,277,61.42,451,801011023,Page,8ACTE,Australian Capital Territory,1.3225
82,ACT,Canberra,65741,Parkes (Canberra),Old Parliament House,PARKES,2600.0,-35.30196110000001,149.1299644,528,21.66,1910,78.34,2438,801061068,Parkes (ACT) - South,8ACTE,Australian Capital Territory,1.8118
83,ACT,Canberra,65742,Parkes CANBERRA PPVC,Old Parliament House,PARKES,2600.0,-35.30196110000001,149.1299644,1087,37.77,1791,62.23,2878,801061068,Parkes (ACT) - South,8ACTE,Australian Capital Territory,1.8118
84,ACT,Canberra,8785,Red Hill,Red Hill School,RED HILL,2603.0,-35.3395,149.13299999999998,871,38.83,1372,61.17,2243,801061069,Red Hill (ACT),8ACTE,Australian Capital Territory,4.8606
90,ACT,Canberra,93984,Special Hospital Team 6,Canberra Hospital 2,GARRAN,2605.0,-35.3459732,149.1007821,12,30.0,28,70.0,40,801091102,Garran,8ACTE,Australian Capital Territory,2.6965
91,ACT,Canberra,93998,Special Hospital Team 7,Sir Leslie Morshead Manor,LYNEHAM,2602.0,-35.2445739,149.124741,19,51.35,18,48.65,37,801051057,Lyneham,8ACTE,Australian Capital Territory,5.4776
92,ACT,Canberra,97477,Special Hospital Team 8,University of Canberra Hospital,BRUCE,2617.0,-35.2327253,149.081474,9,20.0,36,80.0,45,801011003,Bruce,8ACTE,Australian Capital Territory,5.7975
93,ACT,Canberra,93960,Tuggeranong CANBERRA PPVC,Centrepoint,GREENWAY,2900.0,-35.415369399999996,149.06785680000002,239,40.92,345,59.08,584,801071080,Greenway,8ACTE,Australian Capital Territory,5.307
94,ACT,Canberra,8836,Turner,Turner School,TURNER,2601.0,-35.265,149.126,400,19.66,1635,80.34,2035,801051060,Turner,8ACTE,Australian Capital Territory,1.5377
95,ACT,Canberra,8837,Watson,Majura Primary School,WATSON,2602.0,-35.2385,149.155,510,21.66,1845,78.34,2355,801051061,Watson,8ACTE,Australian Capital Territory,3.6743
96,ACT,Canberra,8838,Weetangera (Canberra),Weetangera Primary School,WEETANGERA,2614.0,-35.2518,149.047,589,34.98,1095,65.02,1684,801011026,Weetangera,8ACTE,Australian Capital Territory,1.5832
97,ACT,Canberra,93961,Woden CANBERRA PPVC,Cosmopolitan Building,WODEN,2606.0,-35.3442899,149.08632880000002,2497,45.55,2985,54.45,5482,801091109,Phillip,8ACTE,Australian Capital Territory,2.5749
98,ACT,Canberra,8840,Yarralumla,Yarralumla Primary School,YARRALUMLA,2600.0,-35.3069,149.10299999999998,619,44.53,771,55.47,1390,801061070,Yarralumla,8ACTE,Australian Capital Territory,7.2105
99,ACT,Fenner,38197,Amaroo,Amaroo School,AMAROO,2914.0,-35.1653,149.129,1111,41.13,1590,58.87,2701,801041034,Amaroo,8ACTE,Australian Capital Territory,2.5872
100,ACT,Fenner,94007,Aranda (Fenner),Aranda Primary School,ARANDA,2614.0,-35.256,149.08,43,24.71,131,75.29,174,801011001,Aranda,8ACTE,Australian Capital Territory,1.5631
101,ACT,Fenner,8805,Belconnen (Fenner),Lake Ginninderra College,BELCONNEN,2617.0,-35.2391,149.07399999999998,412,28.07,1056,71.93,1468,801011002,Belconnen,8ACTE,Australian Capital Territory,4.4261
102,ACT,Fenner,32464,Belconnen FENNER PPVC,Belconnen Community Centre,BELCONNEN,2900.0,-35.23893029999999,149.069655,5915,40.75,8602,59.25,14517,801011002,Belconnen,8ACTE,Australian Capital Territory,4.4261
103,ACT,Fenner,65505,BLV Fenner PPVC,BLV Fenner,CANBERRA CITY,2601.0,-35.2790544,149.1263791,9,47.37,10,52.63,19,801051053,Civic,8ACTE,Australian Capital Territory,1.4309
104,ACT,Fenner,65695,Bonner,Neville Bonner Primary School,BONNER,2914.0,-35.161578600000006,149.1397655,798,39.39,1228,60.61,2026,801041035,Bonner,8ACTE,Australian Capital Territory,2.7559
105,ACT,Fenner,94020,Bruce (Fenner),Radford College,BRUCE,2617.0,-35.244280200000006,149.0884075,103,45.37,124,54.63,227,801011003,Bruce,8ACTE,Australian Capital Territory,5.7975
106,ACT,Fenner,8807,Charnwood,St Thomas Aquinas Primary School,CHARNWOOD,2615.0,-35.2051,149.03,680,38.7,1077,61.3,1757,801011004,Charnwood,8ACTE,Australian Capital Territory,1.8559
107,ACT,Fenner,83851,Charnwood East,Charnwood Dunlop Primary School,CHARNWOOD,2615.0,-35.1954335,149.03709640000002,249,33.83,487,66.17,736,801011004,Charnwood,8ACTE,Australian Capital Territory,1.8559
108,ACT,Fenner,66144,City (Fenner),Pilgrim House,CANBERRA CITY,2601.0,-35.2767018,149.1290814,59,36.65,102,63.35,161,801051053,Civic,8ACTE,Australian Capital Territory,1.4309
109,ACT,Fenner,32465,City FENNER PPVC,Canberra Museum and Gallery,CANBERRA CITY,2601.0,-35.2805169,149.13086140000001,1541,37.57,2561,62.43,4102,801051053,Civic,8ACTE,Australian Capital Territory,1.4309
110,ACT,Fenner,94017,Divisional Office (PREPOLL),Divisional Office,CANBERRA CITY,2601.0,-35.270926,149.129899,57,45.24,69,54.76,126,801051060,Turner,8ACTE,Australian Capital Territory,1.5377
111,ACT,Fenner,8812,Evatt,Evatt Primary School,EVATT,2617.0,-35.2071,149.076,745,36.17,1315,63.83,2060,801011007,Evatt,8ACTE,Australian Capital Territory,3.0603
112,ACT,Fenner,83853,Evatt South,Miles Franklin Primary School,EVATT,2617.0,-35.2133,149.067,369,32.48,767,67.52,1136,801011007,Evatt,8ACTE,Australian Capital Territory,3.0603
113,ACT,Fenner,8814,Florey,St Francis Xavier College,FLOREY,2615.0,-35.224000000000004,149.041,454,31.44,990,68.56,1444,801011008,Florey,8ACTE,Australian Capital Territory,2.7554
114,ACT,Fenner,65493,Forde,Burgmann Anglican School Forde,FORDE,2914.0,-35.170897499999995,149.143181,708,46.12,827,53.88,1535,801041038,Forde,8ACTE,Australian Capital Territory,1.9171
115,ACT,Fenner,83854,Franklin,Franklin Early Childhood School,FRANKLIN,2913.0,-35.1964488,149.14474199999998,591,38.98,925,61.02,1516,801041039,Franklin,8ACTE,Australian Capital Territory,2.2966
116,ACT,Fenner,34238,Fraser Central,Fraser Primary School,FRASER,2615.0,-35.1918,149.043,838,37.33,1407,62.67,2245,801011010,Fraser,8ACTE,Australian Capital Territory,2.4751
117,ACT,Fenner,94009,Giralang (Fenner),Giralang Primary School,GIRALANG,2617.0,-35.2137,149.094,89,41.78,124,58.22,213,801011011,Giralang,8ACTE,Australian Capital Territory,2.4467
118,ACT,Fenner,34240,Gungahlin,Burgmann Anglican School,GUNGAHLIN,2912.0,-35.1885,149.124,637,41.02,916,58.98,1553,801041040,Gungahlin,8ACTE,Australian Capital Territory,4.5642
120,ACT,Fenner,83848,Hall,Hall Pavillion,HALL,2618.0,-35.1704,149.072,186,45.15,226,54.85,412,801041043,Hall,8ACTE,Australian Capital Territory,2.8593
122,ACT,Fenner,47681,Harrison,Harrison School,HARRISON,2914.0,-35.19913,149.15129,864,38.99,1352,61.01,2216,801041044,Harrison,8ACTE,Australian Capital Territory,2.9168
123,ACT,Fenner,8821,Holt,Kingsford Smith School,HOLT,2615.0,-35.22694,149.02497,700,35.79,1256,64.21,1956,801011015,Holt,8ACTE,Australian Capital Territory,3.2956
124,ACT,Fenner,83855,Holt West,Kippax Uniting Church,HOLT,2615.0,-35.222463,149.0187789,272,33.96,529,66.04,801,801011015,Holt,8ACTE,Australian Capital Territory,3.2956
125,ACT,Fenner,8825,Latham,Latham Primary School,LATHAM,2615.0,-35.2202,149.034,472,31.94,1006,68.06,1478,801011017,Latham,8ACTE,Australian Capital Territory,2.7312
126,ACT,Fenner,8827,Macgregor,Macgregor Primary School,MACGREGOR,2615.0,-35.2131,149.012,654,32.0,1390,68.0,2044,801011019,Macgregor (ACT),8ACTE,Australian Capital Territory,4.2749
127,ACT,Fenner,94013,Macquarie (Fenner),Macquarie Primary School,MACQUARIE,2614.0,-35.2501,149.059,56,28.0,144,72.0,200,801011020,Macquarie,8ACTE,Australian Capital Territory,1.7004
128,ACT,Fenner,8830,Melba,Mount Rogers Primary School,MELBA,2615.0,-35.2083,149.056,594,32.95,1209,67.05,1803,801011022,Melba,8ACTE,Australian Capital Territory,2.3073
129,ACT,Fenner,32463,Ngunnawal,Ngunnawal Primary School,NGUNNAWAL,2913.0,-35.1692,149.112,905,35.55,1641,64.45,2546,801041046,Ngunnawal,8ACTE,Australian Capital Territory,4.1591
130,ACT,Fenner,32081,Nicholls,Gold Creek and Holy Spirit School,NICHOLLS,2913.0,-35.1802,149.102,1263,45.84,1492,54.16,2755,801041047,Nicholls,8ACTE,Australian Capital Territory,6.7016
131,ACT,Fenner,83857,Nicholls North,St John Paul II College,NICHOLLS,2913.0,-35.176194200000005,149.0999636,551,45.73,654,54.27,1205,801041047,Nicholls,8ACTE,Australian Capital Territory,6.7016
133,ACT,Fenner,8832,Page (Fenner),St Matthew's School,PAGE,2614.0,-35.2398,149.042,365,31.14,807,68.86,1172,801011023,Page,8ACTE,Australian Capital Territory,1.3225
134,ACT,Fenner,31626,Palmerston,Palmerston District Primary School,PALMERSTON,2913.0,-35.1975,149.12,1023,38.43,1639,61.57,2662,801041048,Palmerston,8ACTE,Australian Capital Territory,1.9481
135,ACT,Fenner,65743,Parkes (Fenner),Old Parliament House,PARKES,2600.0,-35.30196110000001,149.1299644,103,23.57,334,76.43,437,801061068,Parkes (ACT) - South,8ACTE,Australian Capital Territory,1.8118
136,ACT,Fenner,83858,Parkes FENNER PPVC,Old Parliament House,PARKES,2600.0,-35.30196110000001,149.1299644,376,38.02,613,61.98,989,801061068,Parkes (ACT) - South,8ACTE,Australian Capital Territory,1.8118
137,ACT,Fenner,8834,Scullin,Southern Cross Early Childhood School,SCULLIN,2614.0,-35.2325569,149.03840309999998,271,22.91,912,77.09,1183,801011024,Scullin,8ACTE,Australian Capital Territory,1.426
139,ACT,Fenner,97559,Taylor,Margaret Hendry School,TAYLOR,2913.0,-35.1522844,149.11360159999998,484,36.25,851,63.75,1335,801041121,Taylor,8ACTE,Australian Capital Territory,3.0387
141,ACT,Fenner,94016,Weetangera (Fenner),Weetangera Primary School,WEETANGERA,2614.0,-35.2518,149.047,72,30.77,162,69.23,234,801011026,Weetangera,8ACTE,Australian Capital Territory,1.5832
143,NSW,Banks,31,Allawah,PJ Ferry Reserve Community Hall,ALLAWAH,2218.0,-33.976789700000005,151.11489740000002,676,50.64,659,49.36,1335,119041379,Kogarah Bay - Carlton - Allawah,1GSYD,New South Wales,3.5033
144,NSW,Banks,67,Allawah South,St Raphael's Church Hall,SOUTH HURSTVILLE,2221.0,-33.9756,151.111,489,53.09,432,46.91,921,119031374,South Hurstville - Blakehurst,1GSYD,New South Wales,6.2489
145,NSW,Banks,56500,Beverly Hills North (Banks),Beverly Hills North Public School,BEVERLY HILLS,2209.0,-33.9413,151.075,138,48.42,147,51.58,285,119021367,Roselands,1GSYD,New South Wales,3.6461
146,NSW,Banks,79612,Beverly Hills South (Banks),Beverly Hills Public School,BEVERLY HILLS,2209.0,-33.9528,151.085,303,49.43,310,50.57,613,119031368,Hurstville,1GSYD,New South Wales,3.6401
147,NSW,Banks,46,Blakehurst North,Blakehurst High School,BLAKEHURST,2221.0,-33.9814,151.113,187,55.16,152,44.84,339,119031374,South Hurstville - Blakehurst,1GSYD,New South Wales,6.2489
148,NSW,Banks,65425,BLV Banks PPVC,BLV Banks,HURSTVILLE,2220.0,-33.967445899999994,151.10657759999998,7,33.33,14,66.67,21,119031368,Hurstville,1GSYD,New South Wales,3.6401
149,NSW,Banks,56472,Carlton South (Banks),Carlton South Public School,CARLTON,2218.0,-33.9727,151.128,467,44.82,575,55.18,1042,119041379,Kogarah Bay - Carlton - Allawah,1GSYD,New South Wales,3.5033
150,NSW,Banks,65,Carlton West,St Cuthbert's Church Hall,CARLTON,2218.0,-33.976344700000006,151.1206652,644,55.61,514,44.39,1158,119041379,Kogarah Bay - Carlton - Allawah,1GSYD,New South Wales,3.5033
151,NSW,Banks,42,Connells Point (Banks),Connells Point Public School,CONNELLS POINT,2221.0,-33.9855,151.1,1296,68.32,601,31.68,1897,119031374,South Hurstville - Blakehurst,1GSYD,New South Wales,6.2489
152,NSW,Banks,30094,Divisional Office (PREPOLL),Divisional Office,HURSTVILLE,2220.0,-33.9676291,151.1064478,0,0.0,0,0.0,0,119031368,Hurstville,1GSYD,New South Wales,3.6401
153,NSW,Banks,2,East Hills,1st East Hills Scout Hall,EAST HILLS,2213.0,-33.961181700000004,150.982054,616,54.71,510,45.29,1126,119011359,Panania - Milperra - Picnic Point,1GSYD,New South Wales,14.3909
154,NSW,Banks,79613,Hurstville (Banks),Hurstville Senior Citizens Centre,HURSTVILLE,2220.0,-33.9642,151.102,239,56.37,185,43.63,424,119031368,Hurstville,1GSYD,New South Wales,3.6401
155,NSW,Banks,34046,Hurstville BANKS PPVC,"Level 1, 8 Woodville St",HURSTVILLE,2220.0,-33.966379100000005,151.10683630000003,6129,60.41,4017,39.59,10146,119031368,Hurstville,1GSYD,New South Wales,3.6401
156,NSW,Banks,79614,Hurstville East (Banks),Hurstville Public School,HURSTVILLE,2220.0,-33.9641,151.111,127,51.63,119,48.37,246,119031368,Hurstville,1GSYD,New South Wales,3.6401
157,NSW,Banks,45,Hurstville Grove,Hurstville Grove Infants School,PENSHURST,2222.0,-33.9729154,151.0909386,1004,58.92,700,41.08,1704,119031371,Oatley - Hurstville Grove,1GSYD,New South Wales,4.3549
158,NSW,Banks,43,Hurstville South,Hurstville South Public School,HURSTVILLE,2220.0,-33.9726,151.099,494,55.63,394,44.37,888,119031374,South Hurstville - Blakehurst,1GSYD,New South Wales,6.2489
159,NSW,Banks,4,Lugarno,Lugarno Public School,LUGARNO,2210.0,-33.985015000000004,151.0454806,1771,68.48,815,31.52,2586,119031372,Peakhurst - Lugarno,1GSYD,New South Wales,7.4308
160,NSW,Banks,55,Mortdale Central,Mortdale Community Centre,MORTDALE,2223.0,-33.974839700000004,151.0781603,893,55.6,713,44.4,1606,119031369,Mortdale - Penshurst,1GSYD,New South Wales,6.1164
161,NSW,Banks,56,Mortdale East,Mortdale Public School,MORTDALE,2223.0,-33.9727,151.08100000000002,831,49.23,857,50.77,1688,119031371,Oatley - Hurstville Grove,1GSYD,New South Wales,4.3549
162,NSW,Banks,5,Mortdale West,Penshurst West Public School,MORTDALE,2223.0,-33.9615619,151.0731878,1016,55.49,815,44.51,1831,119031369,Mortdale - Penshurst,1GSYD,New South Wales,6.1164
163,NSW,Banks,6,Narwee,Narwee Public School,NARWEE,2209.0,-33.9482,151.069,1150,51.8,1070,48.2,2220,119031370,Narwee - Beverly Hills,1GSYD,New South Wales,3.3909
164,NSW,Banks,58,Oatley,Oatley Public School,OATLEY,2223.0,-33.9847,151.08100000000002,1128,58.02,816,41.98,1944,119031371,Oatley - Hurstville Grove,1GSYD,New South Wales,4.3549
165,NSW,Banks,83630,Oatley East,Oatley Anglican Church Hall,OATLEY,2223.0,-33.9841934,151.082371,309,59.88,207,40.12,516,119031371,Oatley - Hurstville Grove,1GSYD,New South Wales,4.3549
166,NSW,Banks,59,Oatley West,Oatley West Public School,OATLEY,2223.0,-33.9796,151.065,1343,59.64,909,40.36,2252,119031369,Mortdale - Penshurst,1GSYD,New South Wales,6.1164
167,NSW,Banks,7,Padstow,Padstow Park Public School,PADSTOW,2211.0,-33.9542,151.031,1067,50.59,1042,49.41,2109,119011358,Padstow,1GSYD,New South Wales,6.5091
168,NSW,Banks,83624,Padstow Central,Padstow Congregational Church Hall,PADSTOW,2211.0,-33.95572,151.031707,92,60.13,61,39.87,153,119011358,Padstow,1GSYD,New South Wales,6.5091
169,NSW,Banks,8,Padstow East,Padstow Senior Citizens Centre,PADSTOW,2211.0,-33.949,151.03,853,53.05,755,46.95,1608,119011358,Padstow,1GSYD,New South Wales,6.5091
170,NSW,Banks,58722,Padstow PPVC,Padstow TAFE,PADSTOW,2211.0,-33.9480237,151.02594140000002,4555,59.42,3111,40.58,7666,119011358,Padstow,1GSYD,New South Wales,6.5091
171,NSW,Banks,10,Padstow South,Padstow Heights Public School,PADSTOW HEIGHTS,2211.0,-33.9664348,151.03053640000002,1264,59.51,860,40.49,2124,119011358,Padstow,1GSYD,New South Wales,6.5091
172,NSW,Banks,11,Panania,Panania Senior Citizens Centre,PANANIA,2213.0,-33.9551,150.999,433,52.23,396,47.77,829,119011359,Panania - Milperra - Picnic Point,1GSYD,New South Wales,14.3909
173,NSW,Banks,12,Panania Central,2nd Panania Scouts Hall,PANANIA,2213.0,-33.9519,150.998,555,56.86,421,43.14,976,119011359,Panania - Milperra - Picnic Point,1GSYD,New South Wales,14.3909
174,NSW,Banks,13,Panania North,Panania North Public School,PANANIA,2213.0,-33.9451,150.999,923,51.28,877,48.72,1800,119011359,Panania - Milperra - Picnic Point,1GSYD,New South Wales,14.3909
175,NSW,Banks,14,Panania South,Panania Public School,PANANIA,2213.0,-33.9661,151.0,1453,58.97,1011,41.03,2464,119011359,Panania - Milperra - Picnic Point,1GSYD,New South Wales,14.3909
176,NSW,Banks,16,Peakhurst East,Peakhurst Public School,PEAKHURST,2210.0,-33.9553,151.061,925,51.3,878,48.7,1803,119031372,Peakhurst - Lugarno,1GSYD,New South Wales,7.4308
177,NSW,Banks,17,Peakhurst South,Peakhurst South Public School,PEAKHURST HEIGHTS,2210.0,-33.97281470000001,151.0555257,1070,60.8,690,39.2,1760,119031372,Peakhurst - Lugarno,1GSYD,New South Wales,7.4308
178,NSW,Banks,18,Peakhurst West,Peakhurst West Public School,PEAKHURST,2210.0,-33.961649200000004,151.0489593,1339,57.82,977,42.18,2316,119031372,Peakhurst - Lugarno,1GSYD,New South Wales,7.4308
179,NSW,Banks,19,Penshurst,Wesley Penshurst Uniting Church Hall,PENSHURST,2222.0,-33.962239000000004,151.086054,619,58.56,438,41.44,1057,119031369,Mortdale - Penshurst,1GSYD,New South Wales,6.1164
180,NSW,Banks,60,Penshurst Central,Penshurst Girls Campus,PENSHURST,2222.0,-33.9641,151.08700000000002,970,48.48,1031,51.52,2001,119031369,Mortdale - Penshurst,1GSYD,New South Wales,6.1164
181,NSW,Banks,22,Picnic Point North,Picnic Point High School,PICNIC POINT,2213.0,-33.9649,151.01,1068,61.95,656,38.05,1724,119011359,Panania - Milperra - Picnic Point,1GSYD,New South Wales,14.3909
182,NSW,Banks,83635,Picnic Point South,1st Picnic Point Scout Hall,PICNIC POINT,2213.0,-33.9804039,150.9967331,61,76.25,19,23.75,80,119011359,Panania - Milperra - Picnic Point,1GSYD,New South Wales,14.3909
183,NSW,Banks,57281,Revesby,Revesby YMCA,REVESBY,2212.0,-33.9542157,151.0166996,790,49.31,812,50.69,1602,119011360,Revesby,1GSYD,New South Wales,5.0925
184,NSW,Banks,25,Revesby North (Banks),Revesby Public School,REVESBY,2212.0,-33.9447,151.017,992,52.02,915,47.98,1907,119011360,Revesby,1GSYD,New South Wales,5.0925
185,NSW,Banks,26,Revesby South,Revesby South Public School,REVESBY,2212.0,-33.9605,151.017,1187,54.93,974,45.07,2161,119011360,Revesby,1GSYD,New South Wales,5.0925
186,NSW,Banks,3,Riverwood East (Banks),Hannans Road Public School,RIVERWOOD,2210.0,-33.9459,151.058,512,46.76,583,53.24,1095,119031373,Riverwood,1GSYD,New South Wales,2.7733
187,NSW,Banks,27,Riverwood North,Riverwood Public School,RIVERWOOD,2210.0,-33.9476795,151.047088,336,36.44,586,63.56,922,119031373,Riverwood,1GSYD,New South Wales,2.7733
188,NSW,Banks,28,Riverwood South,St Andrew's Church Hall,RIVERWOOD,2210.0,-33.9524734,151.05321730000003,660,52.63,594,47.37,1254,119031373,Riverwood,1GSYD,New South Wales,2.7733
190,NSW,Banks,14011,Sydney (Banks),Sydney Town Hall,SYDNEY,2000.0,-33.8730501,151.20645280000002,61,40.4,90,59.6,151,117031337,Sydney - Haymarket - The Rocks,1GSYD,New South Wales,4.2934
191,NSW,Banks,97610,Sydney BANKS PPVC,Royal Exchange Building,SYDNEY,2000.0,-33.8638565,151.2092587,299,53.3,262,46.7,561,117031337,Sydney - Haymarket - The Rocks,1GSYD,New South Wales,4.2934
192,NSW,Barton,32,Arncliffe,Arncliffe Community Centre Coronation Hall,ARNCLIFFE,2205.0,-33.938,151.144,357,35.77,641,64.23,998,119041375,Arncliffe - Bardwell Valley,1GSYD,New South Wales,4.9926
193,NSW,Barton,34,Arncliffe Central,Arncliffe Public School,ARNCLIFFE,2205.0,-33.9406,151.14700000000002,485,35.45,883,64.55,1368,119041375,Arncliffe - Bardwell Valley,1GSYD,New South Wales,4.9926
194,NSW,Barton,83610,Arncliffe North,Bayside Anglican Church,ARNCLIFFE,2205.0,-33.939642,151.143493,64,44.14,81,55.86,145,119041375,Arncliffe - Bardwell Valley,1GSYD,New South Wales,4.9926
195,NSW,Barton,2642,Arncliffe West,Athelstane Public School,ARNCLIFFE,2205.0,-33.9374,151.138,733,35.41,1337,64.59,2070,119041375,Arncliffe - Bardwell Valley,1GSYD,New South Wales,4.9926
196,NSW,Barton,2643,Bardwell Park,Bardwell Park Infants School,BARDWELL PARK,2207.0,-33.9338,151.125,503,46.19,586,53.81,1089,119041377,Kingsgrove (South) - Bardwell Park,1GSYD,New South Wales,3.7871
197,NSW,Barton,65982,Belmore BARTON PPVC,Belmore Church of Christ,BELMORE,2192.0,-33.913395,151.104419,851,48.43,906,51.57,1757,119021363,Canterbury (South) - Campsie,1GSYD,New South Wales,4.7777
198,NSW,Barton,2645,Beverly Hills,St Bede's Anglican Church Hall,BEVERLY HILLS,2209.0,-33.9492,151.083,557,49.38,571,50.62,1128,119031370,Narwee - Beverly Hills,1GSYD,New South Wales,3.3909
199,NSW,Barton,2670,Beverly Hills Central,Beverly Hills Uniting Church Hall,BEVERLY HILLS,2209.0,-33.946999999999996,151.079,318,54.45,266,45.55,584,119031370,Narwee - Beverly Hills,1GSYD,New South Wales,3.3909
200,NSW,Barton,2646,Beverly Hills South (Barton),Beverly Hills Public School,BEVERLY HILLS,2209.0,-33.9528,151.085,299,45.93,352,54.07,651,119031368,Hurstville,1GSYD,New South Wales,3.6401
201,NSW,Barton,2647,Bexley,Bexley Baptist Church,BEXLEY,2207.0,-33.9515,151.125,770,41.26,1096,58.74,1866,119041376,Bexley,1GSYD,New South Wales,5.2778
202,NSW,Barton,2640,Bexley East,Bexley Public School,BEXLEY,2207.0,-33.9467,151.128,470,39.93,707,60.07,1177,119041381,Rockdale - Banksia,1GSYD,New South Wales,3.576
203,NSW,Barton,2649,Bexley North,Bexley North Public School,BEXLEY NORTH,2207.0,-33.9407,151.121,464,40.35,686,59.65,1150,119041377,Kingsgrove (South) - Bardwell Park,1GSYD,New South Wales,3.7871
204,NSW,Barton,2662,Bexley North Park,Kingsgrove/Bexley North Community Centre,BEXLEY NORTH,2207.0,-33.9383,151.109,687,46.8,781,53.2,1468,119041377,Kingsgrove (South) - Bardwell Park,1GSYD,New South Wales,3.7871
205,NSW,Barton,83607,Bexley South,Sydney Technical High School,BEXLEY,2207.0,-33.9625,151.113,312,44.57,388,55.43,700,119041376,Bexley,1GSYD,New South Wales,5.2778
206,NSW,Barton,2650,Bexley West,Bexley West Uniting Church Hall,BEXLEY,2207.0,-33.9522,151.114,792,44.25,998,55.75,1790,119041376,Bexley,1GSYD,New South Wales,5.2778
207,NSW,Barton,65449,BLV Barton PPVC,BLV Barton,ROCKDALE,2216.0,-33.9527866,151.13920159999998,6,30.0,14,70.0,20,119041381,Rockdale - Banksia,1GSYD,New South Wales,3.576
208,NSW,Barton,38,Brighton-Le-Sands (Barton),Brighton-Le-Sands Public School,BRIGHTON-LE-SANDS,2216.0,-33.9627,151.148,911,48.1,983,51.9,1894,119041380,Monterey - Brighton-le-Sands - Kyeemagh,1GSYD,New South Wales,3.3799
209,NSW,Barton,83605,Brighton North,St Mark's Anglican Church Hall,BRIGHTON-LE-SANDS,2216.0,-33.9605,151.154,302,46.46,348,53.54,650,119041380,Monterey - Brighton-le-Sands - Kyeemagh,1GSYD,New South Wales,3.3799
210,NSW,Barton,2652,Canterbury South,Canterbury South Public School,CANTERBURY,2193.0,-33.9175,151.116,634,31.03,1409,68.97,2043,119021363,Canterbury (South) - Campsie,1GSYD,New South Wales,4.7777
211,NSW,Barton,2653,Carlton,Carlton Public School,BEXLEY,2207.0,-33.9624,151.124,1017,39.01,1590,60.99,2607,119041376,Bexley,1GSYD,New South Wales,5.2778
212,NSW,Barton,47,Carlton South (Barton),Carlton South Public School,CARLTON,2218.0,-33.9727,151.128,271,38.71,429,61.29,700,119041379,Kogarah Bay - Carlton - Allawah,1GSYD,New South Wales,3.5033
213,NSW,Barton,97585,Central Sydney BARTON PPVC,Central Railway Station,HAYMARKET,2000.0,-33.8824351,151.2063239,160,31.13,354,68.87,514,117031337,Sydney - Haymarket - The Rocks,1GSYD,New South Wales,4.2934
214,NSW,Barton,2656,Clemton Park,Clemton Park Public School,KINGSGROVE,2208.0,-33.92951,151.10897,1082,40.97,1559,59.03,2641,119021364,Kingsgrove (North) - Earlwood,1GSYD,New South Wales,8.2016
215,NSW,Barton,83606,Clemton Park West,Clemton Park Baptist Church,KINGSGROVE,2208.0,-33.930361100000006,151.09958899999998,70,50.0,70,50.0,140,119021364,Kingsgrove (North) - Earlwood,1GSYD,New South Wales,8.2016
216,NSW,Barton,30095,Divisional Office (PREPOLL),Divisional Office,ROCKDALE,2216.0,-33.952900799999995,151.1391306,0,0.0,0,0.0,0,119041381,Rockdale - Banksia,1GSYD,New South Wales,3.576
217,NSW,Barton,83609,Earlwood,Earlwood Uniting Church Hall,EARLWOOD,2206.0,-33.9274,151.123,542,43.85,694,56.15,1236,119021364,Kingsgrove (North) - Earlwood,1GSYD,New South Wales,8.2016
218,NSW,Barton,2660,Earlwood Central,Our Lady of Lourdes Church Hall,EARLWOOD,2206.0,-33.9281,151.127,556,48.06,601,51.94,1157,119021364,Kingsgrove (North) - Earlwood,1GSYD,New South Wales,8.2016
219,NSW,Barton,2661,Earlwood South,Earlwood Public School,EARLWOOD,2206.0,-33.9283,151.124,939,41.48,1325,58.52,2264,119021364,Kingsgrove (North) - Earlwood,1GSYD,New South Wales,8.2016
220,NSW,Barton,79724,Hurlstone Park (Barton),Creative Dance Co,HURLSTONE PARK,2193.0,-33.908507,151.132444,122,25.05,365,74.95,487,120031392,Canterbury (North) - Ashbury,1GSYD,New South Wales,3.0275
221,NSW,Barton,2663,Hurstville (Barton),Hurstville Senior Citizens Centre,HURSTVILLE,2220.0,-33.9642,151.102,547,47.98,593,52.02,1140,119031368,Hurstville,1GSYD,New South Wales,3.6401
222,NSW,Barton,65171,Hurstville BARTON PPVC,"Level 1, 8 Woodville St",HURSTVILLE,2220.0,-33.964924100000005,151.10317609999998,3341,52.08,3074,47.92,6415,119031368,Hurstville,1GSYD,New South Wales,3.6401
223,NSW,Barton,2664,Hurstville East (Barton),Hurstville Public School,HURSTVILLE,2220.0,-33.9641,151.111,517,46.58,593,53.42,1110,119031368,Hurstville,1GSYD,New South Wales,3.6401
224,NSW,Barton,2665,Hurstville North,Kingsway Scout Hall,HURSTVILLE,2220.0,-33.9544,151.096,773,50.66,753,49.34,1526,119031368,Hurstville,1GSYD,New South Wales,3.6401
225,NSW,Barton,2666,Kingsgrove,South-West Evangelical Church Hall,KINGSGROVE,2208.0,-33.9401,151.10299999999998,372,47.39,413,52.61,785,119041377,Kingsgrove (South) - Bardwell Park,1GSYD,New South Wales,3.7871
226,NSW,Barton,79715,Kingsgrove North (Barton),Kingsgrove North High School,KINGSGROVE,2208.0,-33.93385,151.09621,242,50.63,236,49.37,478,119021364,Kingsgrove (North) - Earlwood,1GSYD,New South Wales,8.2016
227,NSW,Barton,2667,Kingsgrove South,Kingsgrove High School,KINGSGROVE,2208.0,-33.9494,151.102,551,43.49,716,56.51,1267,119041377,Kingsgrove (South) - Bardwell Park,1GSYD,New South Wales,3.7871
228,NSW,Barton,50,Kogarah Central,Kogarah High School,KOGARAH,2217.0,-33.9616,151.136,818,38.77,1292,61.23,2110,119041378,Kogarah,1GSYD,New South Wales,2.2197
229,NSW,Barton,51,Kyeemagh,Kyeemagh Public School,KYEEMAGH,2216.0,-33.9497,151.161,535,49.26,551,50.74,1086,119041380,Monterey - Brighton-le-Sands - Kyeemagh,1GSYD,New South Wales,3.3799
230,NSW,Barton,65249,Marrickville BARTON PPVC,Marrickville Town Hall,MARRICKVILLE,2204.0,-33.913688,151.161852,1134,30.94,2531,69.06,3665,117021326,Marrickville,1GSYD,New South Wales,5.8127
231,NSW,Barton,1016,Marrickville Park,Marrickville Uniting Church,MARRICKVILLE,2204.0,-33.9154803,151.15037769999998,291,24.83,881,75.17,1172,117021326,Marrickville,1GSYD,New South Wales,5.8127
232,NSW,Barton,1010,Marrickville South,Ferncourt Public School,MARRICKVILLE,2204.0,-33.9207,151.15200000000002,158,18.81,682,81.19,840,117021326,Marrickville,1GSYD,New South Wales,5.8127
233,NSW,Barton,1011,Marrickville West,Marrickville West Public School,MARRICKVILLE,2204.0,-33.9144,151.14600000000002,318,18.09,1440,81.91,1758,117021326,Marrickville,1GSYD,New South Wales,5.8127
234,NSW,Barton,62,Rockdale,Rockdale Public School,ROCKDALE,2216.0,-33.9527,151.142,419,34.66,790,65.34,1209,119041381,Rockdale - Banksia,1GSYD,New South Wales,3.576
235,NSW,Barton,33869,Rockdale BARTON PPVC,"Ground Level, 81 Railway St",ROCKDALE,2216.0,-33.951266499999996,151.1364055,3402,41.05,4885,58.95,8287,119041381,Rockdale - Banksia,1GSYD,New South Wales,3.576
236,NSW,Barton,63,Rockdale Central,Rockdale Uniting Church Hall,ROCKDALE,2216.0,-33.9537,151.139,599,39.25,927,60.75,1526,119041381,Rockdale - Banksia,1GSYD,New South Wales,3.576
237,NSW,Barton,83616,Rockdale City,Rockdale Harvest Church of Christ,ROCKDALE,2216.0,-33.9505248,151.139653,174,36.02,309,63.98,483,119041381,Rockdale - Banksia,1GSYD,New South Wales,3.576
238,NSW,Barton,2671,Rockdale West,St Joseph's Parish Centre,ROCKDALE,2216.0,-33.9504,151.136,442,35.08,818,64.92,1260,119041381,Rockdale - Banksia,1GSYD,New South Wales,3.576
240,NSW,Barton,14014,Sydney (Barton),Sydney Town Hall,SYDNEY,2000.0,-33.8730501,151.20645280000002,112,39.72,170,60.28,282,117031337,Sydney - Haymarket - The Rocks,1GSYD,New South Wales,4.2934
241,NSW,Barton,97609,Sydney BARTON PPVC,Royal Exchange Building,SYDNEY,2000.0,-33.8638565,151.2092587,325,47.45,360,52.55,685,117031337,Sydney - Haymarket - The Rocks,1GSYD,New South Wales,4.2934
242,NSW,Barton,1470,Tempe,Tempe High School,TEMPE,2044.0,-33.919948,151.1610947,304,22.19,1066,77.81,1370,117021328,Sydenham - Tempe - St Peters,1GSYD,New South Wales,3.8539
243,NSW,Barton,2641,Turrella,Arncliffe West Infants School,TURRELLA,2205.0,-33.931874,151.1452122,400,33.9,780,66.1,1180,119041375,Arncliffe - Bardwell Valley,1GSYD,New South Wales,4.9926
244,NSW,Barton,2673,Undercliffe,Undercliffe Public School,EARLWOOD,2206.0,-33.9244,151.139,653,37.27,1099,62.73,1752,119021364,Kingsgrove (North) - Earlwood,1GSYD,New South Wales,8.2016
245,NSW,Bennelong,65453,BLV Bennelong PPVC,BLV Bennelong,CHATSWOOD,2067.0,-33.798182399999995,151.18185390000002,8,57.14,6,42.86,14,121011398,Chatswood (East) - Artarmon,1GSYD,New South Wales,5.0678
246,NSW,Bennelong,634,Carlingford (Bennelong),Carlingford Public School,CARLINGFORD,2118.0,-33.7800229,151.0553219,631,56.24,491,43.76,1122,125021476,Carlingford,1GSYD,New South Wales,9.7457
247,NSW,Bennelong,33926,Carlingford East,Roselea Public School,CARLINGFORD,2118.0,-33.7654,151.053,1090,57.46,807,42.54,1897,125021476,Carlingford,1GSYD,New South Wales,9.7457
248,NSW,Bennelong,97587,Central Sydney BENNELONG PPVC,Central Railway Station,HAYMARKET,2000.0,-33.8824351,151.2063239,133,43.32,174,56.68,307,117031337,Sydney - Haymarket - The Rocks,1GSYD,New South Wales,4.2934
249,NSW,Bennelong,65177,Chatswood BENNELONG PPVC,Old Sydney Water Board Building,CHATSWOOD,2067.0,-33.798182399999995,151.18185390000002,362,58.48,257,41.52,619,121011398,Chatswood (East) - Artarmon,1GSYD,New South Wales,5.0678
250,NSW,Bennelong,638,Denistone,Eastwood Baptist Hall,EASTWOOD,2122.0,-33.79244,151.08353,526,56.08,412,43.92,938,126021497,Eastwood - Denistone,1GSYD,New South Wales,7.8201
251,NSW,Bennelong,639,Denistone East,Denistone East Public School,DENISTONE EAST,2112.0,-33.7935,151.097,1476,56.08,1156,43.92,2632,126021497,Eastwood - Denistone,1GSYD,New South Wales,7.8201
252,NSW,Bennelong,83564,Denistone South,West Ryde Anglican Church,WEST RYDE,2114.0,-33.805626600000004,151.08318,213,56.35,165,43.65,378,126021503,West Ryde - Meadowbank,1GSYD,New South Wales,4.7923
253,NSW,Bennelong,647,Denistone West,Marsden High School,WEST RYDE,2114.0,-33.8036,151.07,635,56.29,493,43.71,1128,126021503,West Ryde - Meadowbank,1GSYD,New South Wales,4.7923
254,NSW,Bennelong,30096,Divisional Office (PREPOLL),Divisional Office,CHATSWOOD,2067.0,-33.798289700000005,151.1819191,0,0.0,0,0.0,0,121011398,Chatswood (East) - Artarmon,1GSYD,New South Wales,5.0678
255,NSW,Bennelong,105,East Ryde,Ryde East Public School,NORTH RYDE,2113.0,-33.8063669,151.1268905,1447,57.38,1075,42.62,2522,126021591,Ryde,1GSYD,New South Wales,7.2682
256,NSW,Bennelong,33877,East Ryde Central,Ryde Secondary College,RYDE,2112.0,-33.81339129999999,151.1200494,369,56.25,287,43.75,656,126021591,Ryde,1GSYD,New South Wales,7.2682
257,NSW,Bennelong,83497,East Ryde Heights,East Ryde Scout Hall,RYDE,2112.0,-33.8086005,151.126175,218,53.43,190,46.57,408,126021591,Ryde,1GSYD,New South Wales,7.2682
258,NSW,Bennelong,642,Eastwood,Eastwood Public School,EASTWOOD,2122.0,-33.7928,151.078,1200,55.94,945,44.06,2145,126021497,Eastwood - Denistone,1GSYD,New South Wales,7.8201
259,NSW,Bennelong,80,Eastwood Heights,Eastwood Heights Public School,EASTWOOD,2122.0,-33.7817,151.096,740,58.18,532,41.82,1272,126021497,Eastwood - Denistone,1GSYD,New South Wales,7.8201
260,NSW,Bennelong,83568,Eastwood PPVC,"Ground Floor, 3-5 Trelawney St",EASTWOOD,2122.0,-33.792735,151.0795811,2465,59.93,1648,40.07,4113,126021497,Eastwood - Denistone,1GSYD,New South Wales,7.8201
261,NSW,Bennelong,643,Eastwood West,Corrective Services Academy,EASTWOOD,2122.0,-33.7906,151.067,622,59.75,419,40.25,1041,126021497,Eastwood - Denistone,1GSYD,New South Wales,7.8201
262,NSW,Bennelong,83198,Epping,Epping Church of Christ,EPPING,2121.0,-33.7745,151.079,915,52.47,829,47.53,1744,126011495,Epping - North Epping,1GSYD,New South Wales,8.8806
263,NSW,Bennelong,81,Epping East,Epping Public School,EPPING,2121.0,-33.768408,151.08714719999998,942,52.74,844,47.26,1786,126011495,Epping - North Epping,1GSYD,New South Wales,8.8806
264,NSW,Bennelong,645,Epping Heights,Epping Heights Public School,EPPING,2121.0,-33.762840000000004,151.07377,665,53.07,588,46.93,1253,126011495,Epping - North Epping,1GSYD,New South Wales,8.8806
265,NSW,Bennelong,82,Epping North,Epping North Public School,NORTH EPPING,2121.0,-33.7576,151.096,948,53.74,816,46.26,1764,126011495,Epping - North Epping,1GSYD,New South Wales,8.8806
266,NSW,Bennelong,83571,Epping PPVC,53 Beecroft Rd,EPPING,2121.0,-33.7746,151.0788,4308,58.04,3115,41.96,7423,126011495,Epping - North Epping,1GSYD,New South Wales,8.8806
267,NSW,Bennelong,11927,Epping West,Epping West Public School,EPPING,2121.0,-33.7728471,151.0684506,1047,55.75,831,44.25,1878,126011495,Epping - North Epping,1GSYD,New South Wales,8.8806
268,NSW,Bennelong,2252,Ermington Central,Rydalmere East Public School,ERMINGTON,2115.0,-33.816527,151.05728430000002,760,53.67,656,46.33,1416,125021477,Ermington - Rydalmere,1GSYD,New South Wales,9.8654
269,NSW,Bennelong,2253,Ermington West (Bennelong),Ermington West Public School,ERMINGTON,2115.0,-33.8061,151.058,1021,53.65,882,46.35,1903,125021477,Ermington - Rydalmere,1GSYD,New South Wales,9.8654
270,NSW,Bennelong,84,Gladesville (Bennelong),Gladesville Public School,GLADESVILLE,2111.0,-33.8323301,151.12592180000001,971,52.86,866,47.14,1837,126021498,Gladesville - Huntleys Point,1GSYD,New South Wales,4.7162
271,NSW,Bennelong,87,Gladesville North,Gladesville Sporties,GLADESVILLE,2111.0,-33.82318,151.129927,677,58.31,484,41.69,1161,126021498,Gladesville - Huntleys Point,1GSYD,New South Wales,4.7162
272,NSW,Bennelong,33930,Hunters Hill North (Bennelong),Boronia Park Public School,HUNTERS HILL,2110.0,-33.8211705,151.1355456,405,52.19,371,47.81,776,126021499,Hunters Hill - Woolwich,1GSYD,New South Wales,4.1512
273,NSW,Bennelong,98,Macquarie Park,Morling College,MACQUARIE PARK,2113.0,-33.7797606,151.11492180000002,515,42.74,690,57.26,1205,126021500,Macquarie Park - Marsfield,1GSYD,New South Wales,10.672
274,NSW,Bennelong,92,Macquarie Park South,Kent Road Public School,MARSFIELD,2122.0,-33.7864,151.109,1331,56.09,1042,43.91,2373,126021500,Macquarie Park - Marsfield,1GSYD,New South Wales,10.672
275,NSW,Bennelong,83200,Marsfield,Macquarie Anglican Church,EASTWOOD,2122.0,-33.782004,151.09835800000002,336,57.05,253,42.95,589,126021497,Eastwood - Denistone,1GSYD,New South Wales,7.8201
276,NSW,Bennelong,75,Marsfield North,Epping Boys High School,MARSFIELD,2122.0,-33.770391100000005,151.09962230000002,1112,49.6,1130,50.4,2242,126021500,Macquarie Park - Marsfield,1GSYD,New South Wales,10.672
277,NSW,Bennelong,650,Meadowbank,TAFE NSW Meadowbank,MEADOWBANK,2114.0,-33.814842299999995,151.09243769999998,558,48.65,589,51.35,1147,126021503,West Ryde - Meadowbank,1GSYD,New South Wales,4.7923
278,NSW,Bennelong,33928,Melrose Park,Melrose Park Public School,MELROSE PARK,2114.0,-33.8151,151.07299999999998,890,56.76,678,43.24,1568,125021477,Ermington - Rydalmere,1GSYD,New South Wales,9.8654
279,NSW,Bennelong,107,North Ryde,Truscott Street Public School,NORTH RYDE,2113.0,-33.7947,151.13,805,56.1,630,43.9,1435,126021501,North Ryde - East Ryde,1GSYD,New South Wales,6.2232
280,NSW,Bennelong,106,North Ryde Central,North Ryde Public School,NORTH RYDE,2113.0,-33.7939,151.12,1381,57.47,1022,42.53,2403,126021501,North Ryde - East Ryde,1GSYD,New South Wales,6.2232
281,NSW,Bennelong,83575,North Ryde Heights,North Ryde Community Church,NORTH RYDE,2113.0,-33.8005415,151.1309669,185,59.87,124,40.13,309,126021501,North Ryde - East Ryde,1GSYD,New South Wales,6.2232
282,NSW,Bennelong,102,Putney,Putney Public School,PUTNEY,2112.0,-33.8249,151.111,1857,65.9,961,34.1,2818,126021590,Putney,1GSYD,New South Wales,1.5194
283,NSW,Bennelong,83560,Putney West,Tennyson Pre-school Kindergarten,GLADESVILLE,2111.0,-33.8277117,151.1201395,542,65.07,291,34.93,833,126021498,Gladesville - Huntleys Point,1GSYD,New South Wales,4.7162
284,NSW,Bennelong,79,Ryde,Australian Air League Building,RYDE,2112.0,-33.7943477,151.109308,858,62.86,507,37.14,1365,126021591,Ryde,1GSYD,New South Wales,7.2682
285,NSW,Bennelong,83199,Ryde Central,St Annes Anglican Church,RYDE,2112.0,-33.815245000000004,151.104829,334,51.38,316,48.62,650,126021591,Ryde,1GSYD,New South Wales,7.2682
286,NSW,Bennelong,655,Ryde Heights,Meadowbank Public School,RYDE,2112.0,-33.8178,151.09799999999998,819,48.18,881,51.82,1700,126021591,Ryde,1GSYD,New South Wales,7.2682
287,NSW,Bennelong,657,Ryde South,Clive Austin Conference Centre,RYDE,2112.0,-33.8217896,151.1080114,398,60.39,261,39.61,659,126021591,Ryde,1GSYD,New South Wales,7.2682
290,NSW,Bennelong,14017,Sydney (Bennelong),Sydney Town Hall,SYDNEY,2000.0,-33.8730501,151.20645280000002,81,47.09,91,52.91,172,117031337,Sydney - Haymarket - The Rocks,1GSYD,New South Wales,4.2934
291,NSW,Bennelong,97605,Sydney BENNELONG PPVC,Royal Exchange Building,SYDNEY,2000.0,-33.8638565,151.2092587,389,57.04,293,42.96,682,117031337,Sydney - Haymarket - The Rocks,1GSYD,New South Wales,4.2934
292,NSW,Bennelong,34349,Top Ryde,Ryde Public School,RYDE,2112.0,-33.8118,151.108,1058,50.72,1028,49.28,2086,126021591,Ryde,1GSYD,New South Wales,7.2682
293,NSW,Bennelong,661,West Ryde,West Ryde Public School,WEST RYDE,2114.0,-33.8087,151.085,1265,51.55,1189,48.45,2454,126021503,West Ryde - Meadowbank,1GSYD,New South Wales,4.7923
294,NSW,Bennelong,33945,West Ryde BENNELONG PPVC,St Annes Anglican Church,RYDE,2112.0,-33.8152096,151.1048685,4335,58.67,3054,41.33,7389,126021591,Ryde,1GSYD,New South Wales,7.2682
295,NSW,Bennelong,8869,West Ryde Central,TAFE NSW Ryde,RYDE,2112.0,-33.8085,151.1,873,57.55,644,42.45,1517,126021503,West Ryde - Meadowbank,1GSYD,New South Wales,4.7923
296,NSW,Berowra,1822,Annangrove,Annangrove Public School,ANNANGROVE,2156.0,-33.6687322,150.9522275,929,82.87,192,17.13,1121,115021297,Dural - Kenthurst - Wisemans Ferry,1GSYD,New South Wales,377.5396
297,NSW,Berowra,1823,Arcadia,Arcadia Public School,ARCADIA,2159.0,-33.6231223,151.05204609999998,580,73.79,206,26.21,786,115021298,Galston - Laughtondale,1GSYD,New South Wales,191.699
298,NSW,Berowra,43686,Asquith (Berowra),Asquith Public School,ASQUITH,2077.0,-33.6855,151.112,427,56.78,325,43.22,752,121021403,Asquith - Mount Colah,1GSYD,New South Wales,34.6849
299,NSW,Berowra,58669,Baulkham Hills BEROWRA PPVC,16-18 Old Northern Rd,BAULKHAM HILLS,2153.0,-33.7606491,150.992675,1273,77.76,364,22.24,1637,115011290,Baulkham Hills (East),1GSYD,New South Wales,8.3081
300,NSW,Berowra,632,Beecroft,Beecroft Public School,BEECROFT,2119.0,-33.75232329999999,151.06516630000002,1510,63.66,862,36.34,2372,126011496,Pennant Hills - Cheltenham,1GSYD,New South Wales,13.2937
301,NSW,Berowra,83580,Beecroft North,Beecroft Community Hall,BEECROFT,2119.0,-33.7513896,151.065481,263,60.88,169,39.12,432,126011496,Pennant Hills - Cheltenham,1GSYD,New South Wales,13.2937
302,NSW,Berowra,117,Berowra,Berowra Public School,BEROWRA,2081.0,-33.6181,151.14700000000002,1399,54.58,1164,45.42,2563,121021404,Berowra - Brooklyn - Cowan,1GSYD,New South Wales,81.7548
303,NSW,Berowra,118,Berowra Heights,Wideview Public School,BEROWRA HEIGHTS,2082.0,-33.609400799999996,151.1427318,837,54.14,709,45.86,1546,121021404,Berowra - Brooklyn - Cowan,1GSYD,New South Wales,81.7548
304,NSW,Berowra,83582,Berowra PPVC,Cowan Community Centre,COWAN,2081.0,-33.5859736,151.1688727,349,57.12,262,42.88,611,121021404,Berowra - Brooklyn - Cowan,1GSYD,New South Wales,81.7548
305,NSW,Berowra,65454,BLV Berowra PPVC,BLV Berowra,CHATSWOOD,2067.0,-33.798182399999995,151.18185390000002,8,72.73,3,27.27,11,121011398,Chatswood (East) - Artarmon,1GSYD,New South Wales,5.0678
306,NSW,Berowra,120,Brooklyn,Brooklyn Public School,BROOKLYN,2083.0,-33.54813,151.21538,210,45.06,256,54.94,466,121021404,Berowra - Brooklyn - Cowan,1GSYD,New South Wales,81.7548
307,NSW,Berowra,1850,Carlingford Heights,Murray Farm Public School,CARLINGFORD,2118.0,-33.7658,151.039,1132,64.91,612,35.09,1744,125021476,Carlingford,1GSYD,New South Wales,9.7457
308,NSW,Berowra,56586,Castle Hill North (Berowra),Samuel Gilbert Public School,CASTLE HILL,2154.0,-33.7142,150.993,422,71.89,165,28.11,587,115011555,Castle Hill - North,1GSYD,New South Wales,6.8149
309,NSW,Berowra,637,Cheltenham,Cheltenham Girls High School,CHELTENHAM,2119.0,-33.7578,151.07399999999998,693,58.48,492,41.52,1185,126011496,Pennant Hills - Cheltenham,1GSYD,New South Wales,13.2937
310,NSW,Berowra,11928,Cherrybrook,Cherrybrook Public School,CHERRYBROOK,2126.0,-33.7314,151.042,1639,66.71,818,33.29,2457,115011558,Cherrybrook,1GSYD,New South Wales,8.2514
311,NSW,Berowra,34004,Cherrybrook Central,Cherrybrook Girl Guides Hall,CHERRYBROOK,2126.0,-33.7205638,151.0459716,1244,65.51,655,34.49,1899,115011558,Cherrybrook,1GSYD,New South Wales,8.2514
312,NSW,Berowra,1852,Cherrybrook North,John Purchase Public School,CHERRYBROOK,2126.0,-33.7189973,151.0397793,1433,65.37,759,34.63,2192,115011558,Cherrybrook,1GSYD,New South Wales,8.2514
313,NSW,Berowra,83925,Cherrybrook PPVC,1st Cherrybrook Scout Hall,CHERRYBROOK,2126.0,-33.7138778,151.0511344,3230,72.83,1205,27.17,4435,115011558,Cherrybrook,1GSYD,New South Wales,8.2514
314,NSW,Berowra,11929,Cherrybrook South,West Pennant Hills Scout Hall,WEST PENNANT HILLS,2125.0,-33.7382005,151.0503745,825,62.98,485,37.02,1310,126011496,Pennant Hills - Cheltenham,1GSYD,New South Wales,13.2937
315,NSW,Berowra,121,Cowan,Cowan Public School,COWAN,2081.0,-33.5885,151.16899999999998,230,51.57,216,48.43,446,121021404,Berowra - Brooklyn - Cowan,1GSYD,New South Wales,81.7548
316,NSW,Berowra,30097,Divisional Office (PREPOLL),Divisional Office,CHATSWOOD,2067.0,-33.798289700000005,151.1819191,0,0.0,0,0.0,0,121011398,Chatswood (East) - Artarmon,1GSYD,New South Wales,5.0678
317,NSW,Berowra,11930,Dural,Dural Public School,DURAL,2158.0,-33.6857,151.026,1353,77.54,392,22.46,1745,115021297,Dural - Kenthurst - Wisemans Ferry,1GSYD,New South Wales,377.5396
318,NSW,Berowra,1836,Galston,Galston Public School,GALSTON,2159.0,-33.648,151.045,1229,76.05,387,23.95,1616,115021298,Galston - Laughtondale,1GSYD,New South Wales,191.699
319,NSW,Berowra,1838,Glenhaven,Glenhaven Public School,GLENHAVEN,2156.0,-33.701,151.004,1797,79.58,461,20.42,2258,115011294,Glenhaven,1GSYD,New South Wales,7.2309
320,NSW,Berowra,1839,Glenorie,Glenorie Public School,GLENORIE,2157.0,-33.5987,151.00799999999998,1139,79.87,287,20.13,1426,115021297,Dural - Kenthurst - Wisemans Ferry,1GSYD,New South Wales,377.5396
321,NSW,Berowra,1831,Glenorie West,Hillside Public School,GLENORIE,2157.0,-33.6054902,150.9788283,375,81.52,85,18.48,460,115021297,Dural - Kenthurst - Wisemans Ferry,1GSYD,New South Wales,377.5396
322,NSW,Berowra,123,Hornsby (Berowra),TAFE NSW Hornsby,HORNSBY,2077.0,-33.7,151.097,456,53.4,398,46.6,854,121021578,Hornsby - West,1GSYD,New South Wales,6.2898
323,NSW,Berowra,58578,Hornsby BEROWRA PPVC,266 Peats Ferry Rd,HORNSBY,2077.0,-33.702591,151.09746299999998,4516,62.26,2738,37.74,7254,121021578,Hornsby - West,1GSYD,New South Wales,6.2898
324,NSW,Berowra,43688,Hornsby Central (Berowra),Hornsby Girls High School,HORNSBY,2077.0,-33.7064,151.102,229,55.72,182,44.28,411,121021577,Hornsby - East,1GSYD,New South Wales,2.5689
325,NSW,Berowra,124,Hornsby Heights,Hornsby Heights Public School,HORNSBY HEIGHTS,2077.0,-33.670187,151.09664819999998,1190,58.19,855,41.81,2045,121021403,Asquith - Mount Colah,1GSYD,New South Wales,34.6849
326,NSW,Berowra,126,Hornsby North,Hornsby North Public School,HORNSBY,2077.0,-33.6833,151.09799999999998,722,56.45,557,43.55,1279,121021578,Hornsby - West,1GSYD,New South Wales,6.2898
327,NSW,Berowra,134,Hornsby South,Hornsby South Public School,HORNSBY,2077.0,-33.712763700000004,151.0955118,560,55.45,450,44.55,1010,121021578,Hornsby - West,1GSYD,New South Wales,6.2898
328,NSW,Berowra,128,Hornsby West (Berowra),Hornsby War Memorial Hall,HORNSBY,2077.0,-33.70446,151.09712199999998,413,53.71,356,46.29,769,121021578,Hornsby - West,1GSYD,New South Wales,6.2898
329,NSW,Berowra,1842,Kenthurst,Kenthurst Public School,KENTHURST,2156.0,-33.6654,151.004,1771,81.28,408,18.72,2179,115021297,Dural - Kenthurst - Wisemans Ferry,1GSYD,New South Wales,377.5396
330,NSW,Berowra,1788,Maroota,Maroota Public School,MAROOTA,2756.0,-33.45935,150.99446,253,87.54,36,12.46,289,115021297,Dural - Kenthurst - Wisemans Ferry,1GSYD,New South Wales,377.5396
331,NSW,Berowra,1789,Maroota South,South Maroota Hall,SOUTH MAROOTA,2756.0,-33.5234,150.944,379,80.13,94,19.87,473,115021297,Dural - Kenthurst - Wisemans Ferry,1GSYD,New South Wales,377.5396
332,NSW,Berowra,1846,Middle Dural,Middle Dural Public School,MIDDLE DURAL,2158.0,-33.6444,151.023,717,76.77,217,23.23,934,115021297,Dural - Kenthurst - Wisemans Ferry,1GSYD,New South Wales,377.5396
333,NSW,Berowra,131,Mount Colah,Mount Colah Public School,MOUNT COLAH,2079.0,-33.6726,151.11700000000002,1211,55.63,966,44.37,2177,121021403,Asquith - Mount Colah,1GSYD,New South Wales,34.6849
334,NSW,Berowra,132,Mount Kuring-Gai,Mount Kuring-Gai Public School,MOUNT KURING-GAI,2080.0,-33.6575,151.136,723,58.54,512,41.46,1235,121021403,Asquith - Mount Colah,1GSYD,New South Wales,34.6849
335,NSW,Berowra,79812,Normanhurst (Berowra),Normanhurst Public School,NORMANHURST,2076.0,-33.7237,151.09799999999998,493,56.34,382,43.66,875,121021406,Normanhurst - Thornleigh - Westleigh,1GSYD,New South Wales,9.9882
336,NSW,Berowra,135,Normanhurst West,Normanhurst West Public School,THORNLEIGH,2120.0,-33.72177,151.08808,995,54.49,831,45.51,1826,121021406,Normanhurst - Thornleigh - Westleigh,1GSYD,New South Wales,9.9882
337,NSW,Berowra,136,Pennant Hills,Pennant Hills High School,PENNANT HILLS,2120.0,-33.732899200000006,151.0614421,1461,57.16,1095,42.84,2556,126011496,Pennant Hills - Cheltenham,1GSYD,New South Wales,13.2937
338,NSW,Berowra,83678,Pennant Hills BEROWRA PPVC,2/1 Central Ave,THORNLEIGH,2120.0,-33.729980100000006,151.08075359999998,1359,65.97,701,34.03,2060,121021406,Normanhurst - Thornleigh - Westleigh,1GSYD,New South Wales,9.9882
339,NSW,Berowra,1848,Rogans Hill,"Dover Hall, Mowll Village",CASTLE HILL,2154.0,-33.7271,151.024,321,79.26,84,20.74,405,115011554,Castle Hill - East,1GSYD,New South Wales,2.072
340,NSW,Berowra,33781,Rogans Hill North,Oakhill Drive Public School,CASTLE HILL,2154.0,-33.721514,151.02326340000002,1723,67.94,813,32.06,2536,115011554,Castle Hill - East,1GSYD,New South Wales,2.072
341,NSW,Berowra,1851,Rogans Hill South,"Barton Hall, Hopetoun Village",CASTLE HILL,2154.0,-33.7285,151.025,393,74.43,135,25.57,528,115011554,Castle Hill - East,1GSYD,New South Wales,2.072
343,NSW,Berowra,14020,Sydney (Berowra),Sydney Town Hall,SYDNEY,2000.0,-33.8730501,151.20645280000002,43,40.95,62,59.05,105,117031337,Sydney - Haymarket - The Rocks,1GSYD,New South Wales,4.2934
344,NSW,Berowra,97607,Sydney BEROWRA PPVC,Royal Exchange Building,SYDNEY,2000.0,-33.8638565,151.2092587,285,61.96,175,38.04,460,117031337,Sydney - Haymarket - The Rocks,1GSYD,New South Wales,4.2934
345,NSW,Berowra,56576,Thornleigh,Chinese & Aust Baptist Church,THORNLEIGH,2120.0,-33.7282,151.085,494,58.74,347,41.26,841,121021406,Normanhurst - Thornleigh - Westleigh,1GSYD,New South Wales,9.9882
346,NSW,Berowra,148,Westleigh,Thornleigh West Public School,THORNLEIGH,2120.0,-33.7242,151.072,1816,59.99,1211,40.01,3027,121021406,Normanhurst - Thornleigh - Westleigh,1GSYD,New South Wales,9.9882
347,NSW,Berowra,33118,West Pennant Hills,West Pennant Hills Community Church,WEST PENNANT HILLS,2125.0,-33.756832,151.042589,989,65.19,528,34.81,1517,115011296,West Pennant Hills,1GSYD,New South Wales,7.8291
348,NSW,Berowra,1855,West Pennant Hills Central,West Pennant Hills Public School,WEST PENNANT HILLS,2125.0,-33.7459033,151.05013630000002,1056,64.31,586,35.69,1642,126011496,Pennant Hills - Cheltenham,1GSYD,New South Wales,13.2937
349,NSW,Berowra,11971,West Pennant Hills North (Berowra),Eurambie Park Child Care Centre,WEST PENNANT HILLS,2125.0,-33.7447,151.03,1409,72.15,544,27.85,1953,115011296,West Pennant Hills,1GSYD,New South Wales,7.8291
350,NSW,Berowra,65184,West Ryde BEROWRA PPVC,St Annes Anglican Church,RYDE,2112.0,-33.8152096,151.1048685,51,65.38,27,34.62,78,126021591,Ryde,1GSYD,New South Wales,7.2682
351,NSW,Berowra,33800,Wisemans Ferry,Wisemans Ferry Public School,WISEMANS FERRY,2775.0,-33.395453499999995,150.9849427,99,74.44,34,25.56,133,115021297,Dural - Kenthurst - Wisemans Ferry,1GSYD,New South Wales,377.5396
352,NSW,Blaxland,2365,Auburn,Auburn Public School,AUBURN,2144.0,-33.8538,151.032,523,25.54,1525,74.46,2048,125011582,Auburn - Central,1GSYD,New South Wales,3.7326
353,NSW,Blaxland,65744,Auburn BLAXLAND PPVC,Warehouse C1,AUBURN,2144.0,-33.87573629999999,151.0218471,2072,38.38,3326,61.62,5398,125011584,Auburn - South,1GSYD,New South Wales,2.4313
354,NSW,Blaxland,2392,Auburn Central,St Thomas Anglican Church,AUBURN,2144.0,-33.856,151.028152,155,31.0,345,69.0,500,125011582,Auburn - Central,1GSYD,New South Wales,3.7326
355,NSW,Blaxland,2366,Auburn East,St Joseph the Worker Hall,AUBURN,2144.0,-33.8652,151.025,385,40.19,573,59.81,958,125011584,Auburn - South,1GSYD,New South Wales,2.4313
356,NSW,Blaxland,2368,Auburn North,Auburn Girls High School,AUBURN,2144.0,-33.8433,151.034,384,25.89,1099,74.11,1483,125011583,Auburn - North,1GSYD,New South Wales,2.0966
357,NSW,Blaxland,2369,Auburn West,Auburn West Public School,AUBURN,2144.0,-33.8603,151.02,627,28.74,1555,71.26,2182,125011584,Auburn - South,1GSYD,New South Wales,2.4313
358,NSW,Blaxland,31455,Bankstown (Blaxland),Bankstown Public School,BANKSTOWN,2200.0,-33.9209,151.034,280,23.43,915,76.57,1195,119011572,Bankstown - South,1GSYD,New South Wales,4.4232
359,NSW,Blaxland,33854,Bankstown BLAXLAND PPVC,Bankstown Senior Citizens Centre,BANKSTOWN,2200.0,-33.919083,151.036563,3449,31.79,7401,68.21,10850,119011572,Bankstown - South,1GSYD,New South Wales,4.4232
360,NSW,Blaxland,155,Bankstown Central,Bankstown Senior Citizens Centre,BANKSTOWN,2200.0,-33.919270000000004,151.03662,211,25.89,604,74.11,815,119011572,Bankstown - South,1GSYD,New South Wales,4.4232
361,NSW,Blaxland,154,Bankstown East,St Paul's Church,BANKSTOWN,2200.0,-33.9133,151.035,417,29.79,983,70.21,1400,119011571,Bankstown - North,1GSYD,New South Wales,2.7406
362,NSW,Blaxland,157,Bankstown North,Bankstown North Public School,BANKSTOWN,2200.0,-33.9054791,151.03867240000002,251,26.65,691,73.35,942,119011571,Bankstown - North,1GSYD,New South Wales,2.7406
363,NSW,Blaxland,177,Bankstown West,Bankstown West Public School,BANKSTOWN,2200.0,-33.9164,151.02,434,30.89,971,69.11,1405,119011571,Bankstown - North,1GSYD,New South Wales,2.7406
364,NSW,Blaxland,159,Bass Hill,Bass Hill Public School,BASS HILL,2197.0,-33.9047,151.006,601,35.23,1105,64.77,1706,119011354,Bass Hill - Georges Hall,1GSYD,New South Wales,8.9161
365,NSW,Blaxland,83456,Bass Hill Central,George Bass School,BASS HILL,2197.0,-33.8975854,150.98846909999997,147,47.88,160,52.12,307,119011354,Bass Hill - Georges Hall,1GSYD,New South Wales,8.9161
366,NSW,Blaxland,162,Bass Hill West,Bass High School,BASS HILL,2197.0,-33.8996,150.99,1200,48.33,1283,51.67,2483,119011354,Bass Hill - Georges Hall,1GSYD,New South Wales,8.9161
367,NSW,Blaxland,2370,Berala,Berala Public School,BERALA,2141.0,-33.8705,151.028,595,29.08,1451,70.92,2046,125011585,Berala,1GSYD,New South Wales,2.0865
368,NSW,Blaxland,2383,Berala South,St Peter Chanel Catholic Church,BERALA,2141.0,-33.8783,151.029,817,37.46,1364,62.54,2181,125011587,Regents Park,1GSYD,New South Wales,2.0325
369,NSW,Blaxland,2371,Birrong,Birrong Public School,BIRRONG,2143.0,-33.8958,151.02,802,32.36,1676,67.64,2478,119011361,Yagoona - Birrong,1GSYD,New South Wales,5.5596
370,NSW,Blaxland,65523,BLV Blaxland PPVC,BLV Blaxland,PARRAMATTA,2150.0,-33.814964200000006,151.00638569999998,9,56.25,7,43.75,16,125041492,Parramatta - Rosehill,1GSYD,New South Wales,8.4965
371,NSW,Blaxland,2375,Chester Hill,Chester Hill Community Centre,CHESTER HILL,2162.0,-33.8847939,151.0008561,430,26.36,1201,73.64,1631,125031479,Chester Hill - Sefton,1GSYD,New South Wales,7.2676
372,NSW,Blaxland,160,Chester Hill Central,St John Mark's Anglican Church,CHESTER HILL,2162.0,-33.8873,151.001,475,29.23,1150,70.77,1625,125031479,Chester Hill - Sefton,1GSYD,New South Wales,7.2676
373,NSW,Blaxland,2376,Chester Hill North,Chester Hill High School,CHESTER HILL,2162.0,-33.8737,150.996,665,32.79,1363,67.21,2028,125031479,Chester Hill - Sefton,1GSYD,New South Wales,7.2676
374,NSW,Blaxland,167,Condell Park,Condell Park Public School,CONDELL PARK,2200.0,-33.9255,151.013,819,36.91,1400,63.09,2219,119011356,Condell Park,1GSYD,New South Wales,10.0036
375,NSW,Blaxland,33117,Condell Park North,St Clement's Anglican Church,CONDELL PARK,2200.0,-33.922860899999996,151.0129563,359,43.41,468,56.59,827,119011356,Condell Park,1GSYD,New South Wales,10.0036
376,NSW,Blaxland,168,Condell Park South,Bankstown Senior College,BANKSTOWN,2200.0,-33.931105,151.02165569999997,532,34.28,1020,65.72,1552,119011572,Bankstown - South,1GSYD,New South Wales,4.4232
377,NSW,Blaxland,83474,Condell Park West,Condell Park High School,CONDELL PARK,2200.0,-33.923606,151.002972,324,41.43,458,58.57,782,119011356,Condell Park,1GSYD,New South Wales,10.0036
378,NSW,Blaxland,30098,Divisional Office (PREPOLL),Divisional Office,PARRAMATTA,2150.0,-33.8149755,151.0063881,0,0.0,0,0.0,0,125041492,Parramatta - Rosehill,1GSYD,New South Wales,8.4965
379,NSW,Blaxland,65264,Fairfield BLAXLAND PPVC,Bing Lee Fairfield,FAIRFIELD,2165.0,-33.870765399999996,150.95436740000002,201,31.55,436,68.45,637,127021515,Fairfield,1GSYD,New South Wales,4.2304
380,NSW,Blaxland,169,Georges Hall,Georges Hall Public School,GEORGES HALL,2198.0,-33.9120805,150.9925655,901,44.06,1144,55.94,2045,119011354,Bass Hill - Georges Hall,1GSYD,New South Wales,8.9161
381,NSW,Blaxland,46624,Granville East (Blaxland),Granville East Public School,SOUTH GRANVILLE,2142.0,-33.8481385,151.0106418,104,33.23,209,66.77,313,125031483,Guildford - South Granville,1GSYD,New South Wales,6.7962
382,NSW,Blaxland,2373,Granville South (Blaxland),Blaxcell Street Public School,SOUTH GRANVILLE,2142.0,-33.8579,151.007,457,28.8,1130,71.2,1587,125031483,Guildford - South Granville,1GSYD,New South Wales,6.7962
383,NSW,Blaxland,2380,Guildford North (Blaxland),Granville South Public School,GUILDFORD,2161.0,-33.8488183,150.9961068,60,36.14,106,63.86,166,125031483,Guildford - South Granville,1GSYD,New South Wales,6.7962
384,NSW,Blaxland,2390,Guildford South,Granville South Creative and Performing Arts High School,GUILDFORD,2161.0,-33.8608949,150.9962856,397,38.14,644,61.86,1041,125031483,Guildford - South Granville,1GSYD,New South Wales,6.7962
385,NSW,Blaxland,79934,Lidcombe (Blaxland),Lidcombe Public School,LIDCOMBE,2141.0,-33.860616,151.0472488,131,33.33,262,66.67,393,125011586,Lidcombe,1GSYD,New South Wales,6.4037
386,NSW,Blaxland,79935,Lidcombe South (Blaxland),St Stephen's Anglican Church Hall,LIDCOMBE,2141.0,-33.8654,151.045,193,34.46,367,65.54,560,125011586,Lidcombe,1GSYD,New South Wales,6.4037
387,NSW,Blaxland,174,Milperra,Milperra Public School,MILPERRA,2214.0,-33.9418,150.98,1078,56.44,832,43.56,1910,119011359,Panania - Milperra - Picnic Point,1GSYD,New South Wales,14.3909
388,NSW,Blaxland,66017,Parramatta BLAXLAND PPVC,Shop 215,PARRAMATTA,2150.0,-33.8140622,151.0026311,308,40.26,457,59.74,765,125041492,Parramatta - Rosehill,1GSYD,New South Wales,8.4965
389,NSW,Blaxland,2391,Regents Park,Regents Park Public School,REGENTS PARK,2143.0,-33.885711,151.023368,315,28.02,809,71.98,1124,125011587,Regents Park,1GSYD,New South Wales,2.0325
390,NSW,Blaxland,79866,Revesby North (Blaxland),Revesby Public School,REVESBY,2212.0,-33.9447,151.017,158,41.04,227,58.96,385,119011360,Revesby,1GSYD,New South Wales,5.0925
391,NSW,Blaxland,2393,Sefton,Immaculate Heart of Mary School,SEFTON,2162.0,-33.8872,151.009,753,38.67,1194,61.33,1947,125031479,Chester Hill - Sefton,1GSYD,New South Wales,7.2676
392,NSW,Blaxland,2394,Silverwater (Blaxland),Auburn North Public School,AUBURN,2144.0,-33.841564,151.038377,110,27.99,283,72.01,393,125011583,Auburn - North,1GSYD,New South Wales,2.0966
395,NSW,Blaxland,32339,Sydney (Blaxland),Sydney Town Hall,SYDNEY,2000.0,-33.8730501,151.20645280000002,31,31.63,67,68.37,98,117031337,Sydney - Haymarket - The Rocks,1GSYD,New South Wales,4.2934
396,NSW,Blaxland,97619,Sydney BLAXLAND PPVC,Royal Exchange Building,SYDNEY,2000.0,-33.8638565,151.2092587,116,33.62,229,66.38,345,117031337,Sydney - Haymarket - The Rocks,1GSYD,New South Wales,4.2934
397,NSW,Blaxland,2396,Villawood East,Villawood East Public School,VILLAWOOD,2163.0,-33.8895,150.986,223,19.89,898,80.11,1121,119011354,Bass Hill - Georges Hall,1GSYD,New South Wales,8.9161
398,NSW,Blaxland,180,Yagoona,Yagoona Public School,YAGOONA,2199.0,-33.9056,151.025,300,28.87,739,71.13,1039,119011361,Yagoona - Birrong,1GSYD,New South Wales,5.5596
399,NSW,Blaxland,182,Yagoona West,Yagoona Anglican Church,YAGOONA,2199.0,-33.9064,151.02100000000002,398,30.15,922,69.85,1320,119011361,Yagoona - Birrong,1GSYD,New South Wales,5.5596
400,NSW,Bradfield,115,Asquith (Bradfield),Asquith Public School,ASQUITH,2077.0,-33.6855,151.112,581,54.1,493,45.9,1074,121021403,Asquith - Mount Colah,1GSYD,New South Wales,34.6849
401,NSW,Bradfield,65455,BLV Bradfield PPVC,BLV Bradfield,CHATSWOOD,2067.0,-33.798182399999995,151.18185390000002,5,55.56,4,44.44,9,121011398,Chatswood (East) - Artarmon,1GSYD,New South Wales,5.0678
402,NSW,Bradfield,2011,Castle Cove,Castle Cove Public School,CASTLE COVE,2069.0,-33.7831013,151.20244430000002,1157,71.16,469,28.84,1626,121011402,Willoughby - Castle Cove - Northbridge,1GSYD,New South Wales,10.7518
403,NSW,Bradfield,97589,Central Sydney BRADFIELD PPVC,Central Railway Station,HAYMARKET,2000.0,-33.8824351,151.2063239,148,54.61,123,45.39,271,117031337,Sydney - Haymarket - The Rocks,1GSYD,New South Wales,4.2934
404,NSW,Bradfield,79987,Chatswood (Bradfield),Dougherty Community Centre,CHATSWOOD,2067.0,-33.799179200000005,151.18301730000002,610,62.24,370,37.76,980,121011398,Chatswood (East) - Artarmon,1GSYD,New South Wales,5.0678
405,NSW,Bradfield,58723,Chatswood BRADFIELD PPVC,Old Sydney Water Board Building,CHATSWOOD,2067.0,-33.7975386,151.18177319999998,2327,68.58,1066,31.42,3393,121011398,Chatswood (East) - Artarmon,1GSYD,New South Wales,5.0678
406,NSW,Bradfield,56721,Chatswood West (Bradfield),Chatswood High School,CHATSWOOD,2067.0,-33.7999459,151.17531409999998,484,55.82,383,44.18,867,121011399,Chatswood (West) - Lane Cove North,1GSYD,New South Wales,5.5372
407,NSW,Bradfield,30099,Divisional Office (PREPOLL),Divisional Office,CHATSWOOD,2067.0,-33.798289700000005,151.1819191,0,0.0,0,0.0,0,121011398,Chatswood (East) - Artarmon,1GSYD,New South Wales,5.0678
408,NSW,Bradfield,194,Gordon,St John's Anglican Church Hall,GORDON,2072.0,-33.75679,151.15251,1398,62.61,835,37.39,2233,121031407,Gordon - Killara,1GSYD,New South Wales,11.6714
409,NSW,Bradfield,195,Gordon East,Gordon East Public School,GORDON,2072.0,-33.745920899999994,151.1574345,1174,59.14,811,40.86,1985,121031409,Pymble,1GSYD,New South Wales,10.2514
410,NSW,Bradfield,33948,Gordon PPVC,Roseville Lawn Tennis Club,ROSEVILLE,2069.0,-33.784254,151.18326330000002,2158,69.91,929,30.09,3087,121031408,Lindfield - Roseville,1GSYD,New South Wales,11.8766
411,NSW,Bradfield,196,Gordon West,Gordon West Public School,WEST PYMBLE,2073.0,-33.7601,151.139,984,63.48,566,36.52,1550,121031409,Pymble,1GSYD,New South Wales,10.2514
412,NSW,Bradfield,43833,Hornsby (Bradfield),TAFE NSW Hornsby,HORNSBY,2077.0,-33.7,151.097,167,53.35,146,46.65,313,121021578,Hornsby - West,1GSYD,New South Wales,6.2898
413,NSW,Bradfield,65110,Hornsby BRADFIELD PPVC,266 Peats Ferry Rd,HORNSBY,2077.0,-33.702591,151.09746299999998,3063,63.15,1787,36.85,4850,121021578,Hornsby - West,1GSYD,New South Wales,6.2898
414,NSW,Bradfield,127,Hornsby Central (Bradfield),Hornsby Girls High School,HORNSBY,2077.0,-33.7064,151.102,1027,56.0,807,44.0,1834,121021577,Hornsby - East,1GSYD,New South Wales,2.5689
415,NSW,Bradfield,33771,Hornsby East,Salvation Army Hornsby,HORNSBY,2077.0,-33.70282,151.105087,592,49.25,610,50.75,1202,121021577,Hornsby - East,1GSYD,New South Wales,2.5689
416,NSW,Bradfield,82528,Hornsby West (Bradfield),Hornsby War Memorial Hall,HORNSBY,2077.0,-33.70446,151.09712199999998,228,58.02,165,41.98,393,121021578,Hornsby - West,1GSYD,New South Wales,6.2898
417,NSW,Bradfield,97630,Killara,St Albans Anglican Church,LINDFIELD,2070.0,-33.7757354,151.1700368,1388,67.35,673,32.65,2061,121031408,Lindfield - Roseville,1GSYD,New South Wales,11.8766
418,NSW,Bradfield,199,Killara East,Killara High School,KILLARA,2071.0,-33.7560824,151.17400759999998,1459,68.02,686,31.98,2145,121031407,Gordon - Killara,1GSYD,New South Wales,11.6714
419,NSW,Bradfield,97405,Lindfield Central,All Saints' Air Force Memorial Church West Lindfield,LINDFIELD WEST,2070.0,-33.77778920000001,151.1483567,229,64.69,125,35.31,354,121031408,Lindfield - Roseville,1GSYD,New South Wales,11.8766
420,NSW,Bradfield,202,Lindfield East,Lindfield East Public School,LINDFIELD,2070.0,-33.7681,151.184,1248,66.67,624,33.33,1872,121031408,Lindfield - Roseville,1GSYD,New South Wales,11.8766
421,NSW,Bradfield,203,Lindfield North,Lindfield Public School,LINDFIELD,2070.0,-33.78106,151.16971999999998,1381,59.86,926,40.14,2307,121031408,Lindfield - Roseville,1GSYD,New South Wales,11.8766
422,NSW,Bradfield,204,Lindfield West,Beaumont Road Public School,KILLARA,2071.0,-33.77468,151.14553,1416,63.55,812,36.45,2228,121031407,Gordon - Killara,1GSYD,New South Wales,11.6714
423,NSW,Bradfield,133,Normanhurst (Bradfield),Normanhurst Public School,NORMANHURST,2076.0,-33.7237,151.09799999999998,610,63.61,349,36.39,959,121021406,Normanhurst - Thornleigh - Westleigh,1GSYD,New South Wales,9.9882
424,NSW,Bradfield,83551,North Wahroonga,1st East Wahroonga Scouts,WAHROONGA,2076.0,-33.704908200000006,151.1306416,250,73.96,88,26.04,338,121031412,Wahroonga (East) - Warrawee,1GSYD,New South Wales,13.327
425,NSW,Bradfield,83679,Pennant Hills BRADFIELD PPVC,2/1 Central Ave,THORNLEIGH,2120.0,-33.729980100000006,151.08075359999998,427,70.0,183,30.0,610,121021406,Normanhurst - Thornleigh - Westleigh,1GSYD,New South Wales,9.9882
426,NSW,Bradfield,206,Pymble,Sacred Heart Parish Hall,PYMBLE,2073.0,-33.7395,151.137,898,66.87,445,33.13,1343,121031409,Pymble,1GSYD,New South Wales,10.2514
427,NSW,Bradfield,137,Pymble North,Pymble Public School,PYMBLE,2073.0,-33.731839,151.1411654,1706,71.14,692,28.86,2398,121031409,Pymble,1GSYD,New South Wales,10.2514
428,NSW,Bradfield,207,Pymble West,West Pymble Public School,WEST PYMBLE,2073.0,-33.763940000000005,151.12354,1298,62.55,777,37.45,2075,121031409,Pymble,1GSYD,New South Wales,10.2514
429,NSW,Bradfield,208,Roseville,Roseville Uniting Church,ROSEVILLE,2069.0,-33.7842,151.179311,851,63.13,497,36.87,1348,121031408,Lindfield - Roseville,1GSYD,New South Wales,11.8766
430,NSW,Bradfield,210,Roseville East,Roseville Public School,ROSEVILLE,2069.0,-33.782,151.188,916,64.46,505,35.54,1421,121031408,Lindfield - Roseville,1GSYD,New South Wales,11.8766
431,NSW,Bradfield,2032,Roseville South,St Barnabas' Anglican Church,ROSEVILLE,2069.0,-33.786608,151.1895499,703,65.33,373,34.67,1076,121011398,Chatswood (East) - Artarmon,1GSYD,New South Wales,5.0678
432,NSW,Bradfield,211,St Ives,St Ives Community Hall,ST IVES,2075.0,-33.7291,151.1604,1321,72.19,509,27.81,1830,121031410,St Ives,1GSYD,New South Wales,17.7776
433,NSW,Bradfield,212,St Ives Chase,St Ives North Scout Hall,ST IVES CHASE,2075.0,-33.7084749,151.1632003,721,72.46,274,27.54,995,121031410,St Ives,1GSYD,New South Wales,17.7776
434,NSW,Bradfield,188,St Ives East,St Ives Park Public School,ST IVES,2075.0,-33.72443,151.17793999999998,1340,74.61,456,25.39,1796,121031410,St Ives,1GSYD,New South Wales,17.7776
435,NSW,Bradfield,213,St Ives North,St Ives North Public School,ST IVES,2075.0,-33.7187,151.164,1076,72.36,411,27.64,1487,121031410,St Ives,1GSYD,New South Wales,17.7776
436,NSW,Bradfield,83553,St Ives PPVC,Rosedale Cottage,ST IVES,2075.0,-33.730721,151.16107680000002,4639,76.06,1460,23.94,6099,121031410,St Ives,1GSYD,New South Wales,17.7776
437,NSW,Bradfield,214,St Ives South,St Ives High School,ST IVES,2075.0,-33.7403,151.167,1260,71.07,513,28.93,1773,121031410,St Ives,1GSYD,New South Wales,17.7776
438,NSW,Bradfield,129,South Turramurra,Turramurra High School,SOUTH TURRAMURRA,2074.0,-33.7565262,151.1131977,659,60.07,438,39.93,1097,121031411,Turramurra,1GSYD,New South Wales,20.6426
439,NSW,Bradfield,142,South Turramurra Heights,Turramurra Public School,TURRAMURRA,2074.0,-33.7446,151.113,1575,61.14,1001,38.86,2576,121031411,Turramurra,1GSYD,New South Wales,20.6426
443,NSW,Bradfield,31029,Sydney (Bradfield),Sydney Town Hall,SYDNEY,2000.0,-33.8730501,151.20645280000002,86,51.19,82,48.81,168,117031337,Sydney - Haymarket - The Rocks,1GSYD,New South Wales,4.2934
444,NSW,Bradfield,97606,Sydney BRADFIELD PPVC,Royal Exchange Building,SYDNEY,2000.0,-33.8638565,151.2092587,629,70.28,266,29.72,895,117031337,Sydney - Haymarket - The Rocks,1GSYD,New South Wales,4.2934
445,NSW,Bradfield,140,Turramurra Central,Northside Montessori School,PYMBLE,2073.0,-33.7347001,151.13701930000002,256,69.19,114,30.81,370,121031409,Pymble,1GSYD,New South Wales,10.2514
446,NSW,Bradfield,141,Turramurra North,Turramurra North Public School,NORTH TURRAMURRA,2074.0,-33.7147,151.14700000000002,1763,68.84,798,31.16,2561,121031411,Turramurra,1GSYD,New South Wales,20.6426
447,NSW,Bradfield,130,Turramurra Valley,Ku-ring-gai High School,NORTH TURRAMURRA,2074.0,-33.690991600000004,151.15379430000002,154,77.0,46,23.0,200,121031411,Turramurra,1GSYD,New South Wales,20.6426
448,NSW,Bradfield,143,Wahroonga,Wahroonga Presbyterian Church Hall,WAHROONGA,2076.0,-33.716189,151.1182789,1274,70.86,524,29.14,1798,121031412,Wahroonga (East) - Warrawee,1GSYD,New South Wales,13.327
449,NSW,Bradfield,144,Wahroonga East,Wahroonga Public School,WAHROONGA,2076.0,-33.7155,151.128,1745,71.87,683,28.13,2428,121031412,Wahroonga (East) - Warrawee,1GSYD,New South Wales,13.327
450,NSW,Bradfield,83552,Wahroonga South,St Lucy's School,WAHROONGA,2076.0,-33.7168372,151.12052250000002,471,75.48,153,24.52,624,121031412,Wahroonga (East) - Warrawee,1GSYD,New South Wales,13.327
451,NSW,Bradfield,145,Waitara,The Light of Christ Centre Hall,WAITARA,2077.0,-33.7133693,151.1034831,270,62.79,160,37.21,430,121021579,Waitara - Wahroonga (West),1GSYD,New South Wales,2.1123
452,NSW,Bradfield,125,Waitara North,PCYC Waitara,WAITARA,2077.0,-33.7091354,151.1062678,741,56.44,572,43.56,1313,121021579,Waitara - Wahroonga (West),1GSYD,New South Wales,2.1123
453,NSW,Bradfield,147,Warrawee,Warrawee Public School,TURRAMURRA,2074.0,-33.73,151.123,1538,62.7,915,37.3,2453,121031412,Wahroonga (East) - Warrawee,1GSYD,New South Wales,13.327
454,NSW,Calare,219,Barry,Barry Community Hall,BARRY,2799.0,-33.6464839,149.2717135,116,79.45,30,20.55,146,103041076,Blayney,1RNSW,New South Wales,1642.6748
455,NSW,Calare,220,Bathurst,Bathurst Public School,BATHURST,2795.0,-33.4217,149.571,632,53.15,557,46.85,1189,103011058,Bathurst,1RNSW,New South Wales,119.5048
456,NSW,Calare,221,Bathurst Central,Catholic Cathedral Parish Centre,BATHURST,2795.0,-33.42,149.577,584,53.73,503,46.27,1087,103011058,Bathurst,1RNSW,New South Wales,119.5048
457,NSW,Calare,31071,Bathurst City,St Stephen's Presbyterian Church Hall,BATHURST,2795.0,-33.4163,149.58,998,59.51,679,40.49,1677,103011058,Bathurst,1RNSW,New South Wales,119.5048
458,NSW,Calare,223,Bathurst North,Denison College Bathurst High Campus,BATHURST,2795.0,-33.4129,149.569,369,54.03,314,45.97,683,103011058,Bathurst,1RNSW,New South Wales,119.5048
459,NSW,Calare,33861,Bathurst PPVC,Old Clancy Motors Building,BATHURST,2795.0,-33.4152062,149.5788909,8851,63.52,5084,36.48,13935,103011058,Bathurst,1RNSW,New South Wales,119.5048
460,NSW,Calare,225,Bathurst South,Bathurst South Public School,BATHURST,2795.0,-33.4337,149.569,347,48.33,371,51.67,718,103011058,Bathurst,1RNSW,New South Wales,119.5048
461,NSW,Calare,227,Bathurst West,Bathurst West Public School,WEST BATHURST,2795.0,-33.4118,149.559,815,55.03,666,44.97,1481,103011058,Bathurst,1RNSW,New South Wales,119.5048
462,NSW,Calare,1750,Black Springs,Black Springs Public School,BLACK SPRINGS,2787.0,-33.8463,149.74200000000002,130,68.78,59,31.22,189,103011061,Oberon,1RNSW,New South Wales,2972.3813
463,NSW,Calare,228,Blayney,Blayney Shire Community Centre,BLAYNEY,2799.0,-33.5300044,149.2549042,1172,66.52,590,33.48,1762,103041076,Blayney,1RNSW,New South Wales,1642.6748
464,NSW,Calare,229,Bletchington,Bletchington Public School,ORANGE,2800.0,-33.2693,149.10299999999998,1392,62.31,842,37.69,2234,103041078,Orange - North,1RNSW,New South Wales,99.5118
465,NSW,Calare,230,Bloomfield,Bloomfield Hall,BLOOMFIELD,2800.0,-33.318681,149.09106,67,55.83,53,44.17,120,103041077,Orange,1RNSW,New South Wales,45.2499
466,NSW,Calare,65499,BLV Calare PPVC,BLV Calare,ORANGE,2800.0,-33.2861219,149.1010431,3,60.0,2,40.0,5,103041077,Orange,1RNSW,New South Wales,45.2499
467,NSW,Calare,2157,Borenore,Borenore Public School,BORENORE,2800.0,-33.251,148.984,213,80.08,53,19.92,266,103041079,Orange Region,1RNSW,New South Wales,4480.0957
468,NSW,Calare,231,Bowen,Bowen Public School,ORANGE,2800.0,-33.2802,149.118,888,61.97,545,38.03,1433,103041077,Orange,1RNSW,New South Wales,45.2499
469,NSW,Calare,232,Bowenfels South,Presbyterian Church Hall,SOUTH BOWENFELS,2790.0,-33.5152,150.120477,167,66.8,83,33.2,250,103031070,Lithgow,1RNSW,New South Wales,119.9844
470,NSW,Calare,235,Calare Central,Calare Public School,ORANGE,2800.0,-33.2872,149.08,713,63.1,417,36.9,1130,103041077,Orange,1RNSW,New South Wales,45.2499
471,NSW,Calare,236,Canobolas,Canobolas Public School,CANOBOLAS,2800.0,-33.3062,149.047,185,69.55,81,30.45,266,103041079,Orange Region,1RNSW,New South Wales,4480.0957
472,NSW,Calare,2161,Canowindra,Canowindra High School,CANOWINDRA,2804.0,-33.5577156,148.6706656,798,73.01,295,26.99,1093,103021064,Cowra Region,1RNSW,New South Wales,3037.1557
473,NSW,Calare,237,Capertee,Capertee Community Hall,CAPERTEE,2846.0,-33.146568,149.98671000000002,80,70.18,34,29.82,114,103031071,Lithgow Region,1RNSW,New South Wales,2514.07
474,NSW,Calare,238,Carcoar,Carcoar Public School,CARCOAR,2791.0,-33.6118941,149.1420543,101,57.71,74,42.29,175,103041076,Blayney,1RNSW,New South Wales,1642.6748
475,NSW,Calare,2162,Cargo,Cargo Public School,CARGO,2800.0,-33.4277553,148.8078627,187,70.57,78,29.43,265,103041079,Orange Region,1RNSW,New South Wales,4480.0957
476,NSW,Calare,241,Cooerwull,Cooerwull Public School,LITHGOW,2790.0,-33.4839494,150.141751,618,50.86,597,49.14,1215,103031070,Lithgow,1RNSW,New South Wales,119.9844
477,NSW,Calare,2170,Cudal,Cudal Public School,CUDAL,2864.0,-33.2873619,148.74032409999998,277,73.87,98,26.13,375,103041079,Orange Region,1RNSW,New South Wales,4480.0957
478,NSW,Calare,242,Cullen Bullen,Cullen Bullen Progress Hall,CULLEN BULLEN,2790.0,-33.2995,150.033,89,59.73,60,40.27,149,103031071,Lithgow Region,1RNSW,New South Wales,2514.07
479,NSW,Calare,2171,Cumnock,Cumnock Community Centre,CUMNOCK,2867.0,-32.92905,148.748647,194,77.29,57,22.71,251,103041079,Orange Region,1RNSW,New South Wales,4480.0957
480,NSW,Calare,30100,Divisional Office (PREPOLL),Divisional Office,ORANGE,2800.0,-33.2860684,149.10111840000002,0,0.0,0,0.0,0,103041077,Orange,1RNSW,New South Wales,45.2499
481,NSW,Calare,83546,Dubbo CALARE PPVC,88-90 Macquarie St,DUBBO,2830.0,-32.2315018,148.6329645,492,73.0,182,27.0,674,105031100,Dubbo - East,1RNSW,New South Wales,87.6912
482,NSW,Calare,244,Eglinton,Eglinton Public School,EGLINTON,2795.0,-33.3778328,149.5401417,812,60.82,523,39.18,1335,103011058,Bathurst,1RNSW,New South Wales,119.5048
483,NSW,Calare,2183,Eugowra,Eugowra Public School,EUGOWRA,2806.0,-33.4237,148.369,312,76.47,96,23.53,408,103021065,Forbes,1RNSW,New South Wales,4598.0438
484,NSW,Calare,2191,Geurie,Geurie Public School,GEURIE,2818.0,-32.3961,148.829,268,72.24,103,27.76,371,105031106,Wellington,1RNSW,New South Wales,3603.4369
485,NSW,Calare,249,Glen Alice,Glen Alice Public School,GLEN ALICE,2849.0,-33.042699600000006,150.2143916,48,65.75,25,34.25,73,103031071,Lithgow Region,1RNSW,New South Wales,2514.07
486,NSW,Calare,250,Glenroi,Glenroi Heights Public School,ORANGE,2800.0,-33.2972043,149.1117993,493,52.0,455,48.0,948,103041077,Orange,1RNSW,New South Wales,45.2499
487,NSW,Calare,252,Gulgong,Gulgong Memorial Hall,GULGONG,2852.0,-32.3616,149.534,916,64.1,513,35.9,1429,103031074,Mudgee Region - West,1RNSW,New South Wales,8043.8635
488,NSW,Calare,253,Hampton,Hampton Public School,HAMPTON,2790.0,-33.6487525,150.0490689,82,66.13,42,33.87,124,103031071,Lithgow Region,1RNSW,New South Wales,2514.07
489,NSW,Calare,254,Hargraves,Hargraves Public School,HARGRAVES,2850.0,-32.7854,149.46200000000002,99,71.74,39,28.26,138,103031074,Mudgee Region - West,1RNSW,New South Wales,8043.8635
490,NSW,Calare,1767,Hartley,Hartley Old Public School,HARTLEY,2790.0,-33.551,150.188,282,62.53,169,37.47,451,103031071,Lithgow Region,1RNSW,New South Wales,2514.07
491,NSW,Calare,255,Hermitage,Hermitage Progress Association Hall,LITHGOW,2790.0,-33.4799,150.149,202,54.74,167,45.26,369,103031070,Lithgow,1RNSW,New South Wales,119.9844
492,NSW,Calare,256,Hill End,Hill End Public School,HILL END,2850.0,-33.0349,149.416,31,51.67,29,48.33,60,103011060,Bathurst Region,1RNSW,New South Wales,3798.2628
493,NSW,Calare,258,Ilford,Ilford Public School,ILFORD,2850.0,-32.9668,149.856,119,79.87,30,20.13,149,103031073,Mudgee Region - East,1RNSW,New South Wales,2852.0843
494,NSW,Calare,259,Kandos,Kandos Memorial Hall,KANDOS,2848.0,-32.859021000000006,149.97491599999998,405,57.2,303,42.8,708,103031073,Mudgee Region - East,1RNSW,New South Wales,2852.0843
495,NSW,Calare,260,Kelso,Kelso Public School,KELSO,2795.0,-33.4176,149.60399999999998,808,54.71,669,45.29,1477,103011059,Bathurst - East,1RNSW,New South Wales,94.0341
496,NSW,Calare,262,Lithgow,Lithgow Public School,LITHGOW,2790.0,-33.4818,150.16,421,45.12,512,54.88,933,103031070,Lithgow,1RNSW,New South Wales,119.9844
497,NSW,Calare,33864,Lithgow PPVC,47 Main Street,LITHGOW,2790.0,-33.4809335,150.1574085,3534,59.7,2386,40.3,5920,103031070,Lithgow,1RNSW,New South Wales,119.9844
498,NSW,Calare,265,Lucknow,Lucknow School Community Hall,LUCKNOW,2800.0,-33.3445,149.161,177,74.06,62,25.94,239,103041079,Orange Region,1RNSW,New South Wales,4480.0957
499,NSW,Calare,266,Lue,Lue Public School,LUE,2850.0,-32.656663300000005,149.84552130000003,85,77.27,25,22.73,110,103031074,Mudgee Region - West,1RNSW,New South Wales,8043.8635
500,NSW,Calare,267,Lyndhurst,Lyndhurst Public School,LYNDHURST,2797.0,-33.6738179,149.0445601,142,80.68,34,19.32,176,103041076,Blayney,1RNSW,New South Wales,1642.6748
501,NSW,Calare,269,Mandurama,Mandurama Public School,MANDURAMA,2792.0,-33.6518,149.07,142,69.61,62,30.39,204,103041076,Blayney,1RNSW,New South Wales,1642.6748
502,NSW,Calare,2201,Manildra,Manildra Soldiers Memorial Hall,MANILDRA,2865.0,-33.1858946,148.6928488,350,78.83,94,21.17,444,103041079,Orange Region,1RNSW,New South Wales,4480.0957
503,NSW,Calare,272,Meadow Flat,Meadow Flat Public School,MEADOW FLAT,2795.0,-33.4344484,149.9201679,132,65.35,70,34.65,202,103031071,Lithgow Region,1RNSW,New South Wales,2514.07
504,NSW,Calare,273,Millthorpe,Millthorpe Public School,MILLTHORPE,2798.0,-33.445475800000004,149.1857157,509,66.89,252,33.11,761,103041076,Blayney,1RNSW,New South Wales,1642.6748
505,NSW,Calare,2203,Molong,Molong Community Hall,MOLONG,2866.0,-33.0948742,148.86560500000002,796,70.26,337,29.74,1133,103041079,Orange Region,1RNSW,New South Wales,4480.0957
506,NSW,Calare,276,Mudgee,Mudgee Police Citizens Youth Club,MUDGEE,2850.0,-32.590787,149.589323,676,63.65,386,36.35,1062,103031072,Mudgee,1RNSW,New South Wales,65.8948
507,NSW,Calare,277,Mudgee Central,Mudgee High School,MUDGEE,2850.0,-32.5984,149.583,613,57.45,454,42.55,1067,103031072,Mudgee,1RNSW,New South Wales,65.8948
508,NSW,Calare,33888,Mudgee PPVC,St John's Anglican Hall,MUDGEE,2850.0,-32.5901568,149.5887382,5344,68.56,2451,31.44,7795,103031072,Mudgee,1RNSW,New South Wales,65.8948
509,NSW,Calare,279,Mudgee South,Cudgegong Valley Public School,MUDGEE,2850.0,-32.6066,149.584,618,67.76,294,32.24,912,103031072,Mudgee,1RNSW,New South Wales,65.8948
510,NSW,Calare,2205,Mullion Creek,Mullion Creek Public School,MULLION CREEK,2800.0,-33.1391,149.121,264,70.97,108,29.03,372,103041079,Orange Region,1RNSW,New South Wales,4480.0957
511,NSW,Calare,2207,Mumbil,Mumbil Public School,MUMBIL,2820.0,-32.7219,149.05100000000002,88,61.11,56,38.89,144,105031106,Wellington,1RNSW,New South Wales,3603.4369
512,NSW,Calare,2209,Nashdale,Nashdale Public School,NASHDALE,2800.0,-33.294070899999994,149.01238659999999,269,70.98,110,29.02,379,103041079,Orange Region,1RNSW,New South Wales,4480.0957
513,NSW,Calare,280,Neville,Neville Public School,NEVILLE,2799.0,-33.709,149.217,56,62.22,34,37.78,90,103041076,Blayney,1RNSW,New South Wales,1642.6748
514,NSW,Calare,1796,O'Connell,O'Connell Public School,O'CONNELL,2795.0,-33.5245,149.72,169,61.9,104,38.1,273,103011060,Bathurst Region,1RNSW,New South Wales,3798.2628
515,NSW,Calare,282,Oakey Park,Zig Zag Public School,LITHGOW,2790.0,-33.466,150.183,109,49.55,111,50.45,220,103031070,Lithgow,1RNSW,New South Wales,119.9844
516,NSW,Calare,1795,Oberon,Oberon High School,OBERON,2787.0,-33.7021,149.859,1099,67.05,540,32.95,1639,103011061,Oberon,1RNSW,New South Wales,2972.3813
517,NSW,Calare,283,Orange,Orange Public School,ORANGE,2800.0,-33.285490100000004,149.0968798,940,60.37,617,39.63,1557,103041077,Orange,1RNSW,New South Wales,45.2499
518,NSW,Calare,284,Orange East,St Barnabas Parish Hall,ORANGE,2800.0,-33.2848161,149.10785780000003,646,53.57,560,46.43,1206,103041077,Orange,1RNSW,New South Wales,45.2499
519,NSW,Calare,286,Orange North,Kenna Hall,ORANGE,2800.0,-33.2798185,149.0946465,1012,60.64,657,39.36,1669,103041077,Orange,1RNSW,New South Wales,45.2499
520,NSW,Calare,65686,Orange North West,Orange Anglican Grammar School,ORANGE,2800.0,-33.2583532,149.0726671,193,73.66,69,26.34,262,103041078,Orange - North,1RNSW,New South Wales,99.5118
521,NSW,Calare,33863,Orange PPVC,Old Marally Craft Building,ORANGE,2800.0,-33.2879159,149.1018679,8456,67.74,4027,32.26,12483,103041077,Orange,1RNSW,New South Wales,45.2499
522,NSW,Calare,287,Orange South,Anson Street Public School,ORANGE,2800.0,-33.293091,149.09705359999998,672,63.34,389,36.66,1061,103041077,Orange,1RNSW,New South Wales,45.2499
523,NSW,Calare,288,Orange West,Orange High School,ORANGE,2800.0,-33.2809,149.086,1255,64.69,685,35.31,1940,103041077,Orange,1RNSW,New South Wales,45.2499
524,NSW,Calare,289,Peel,Old School House,PEEL,2795.0,-33.3094,149.635,92,63.01,54,36.99,146,103011060,Bathurst Region,1RNSW,New South Wales,3798.2628
525,NSW,Calare,290,Perthville,Perthville Public School,PERTHVILLE,2795.0,-33.491277399999994,149.5491994,369,69.75,160,30.25,529,103011060,Bathurst Region,1RNSW,New South Wales,3798.2628
526,NSW,Calare,291,Portland,Portland Central School,PORTLAND,2847.0,-33.3551735,149.9792727,508,58.26,364,41.74,872,103031071,Lithgow Region,1RNSW,New South Wales,2514.07
527,NSW,Calare,294,Raglan,Raglan Public School,RAGLAN,2795.0,-33.4283,149.648,425,61.77,263,38.23,688,103011059,Bathurst - East,1RNSW,New South Wales,94.0341
528,NSW,Calare,1803,Rockley,Rockley Public School,ROCKLEY,2795.0,-33.69226,149.56285,102,61.82,63,38.18,165,103011060,Bathurst Region,1RNSW,New South Wales,3798.2628
529,NSW,Calare,297,Rylstone,Public School,RYLSTONE,2849.0,-32.795781,149.972821,401,59.06,278,40.94,679,103031073,Mudgee Region - East,1RNSW,New South Wales,2852.0843
535,NSW,Calare,299,Spring Hill,Spring Hill Public School,SPRING HILL,2800.0,-33.3997,149.151,188,67.87,89,32.13,277,103041079,Orange Region,1RNSW,New South Wales,4480.0957
536,NSW,Calare,300,Spring Terrace,Spring Terrace Public School,SPRING TERRACE,2798.0,-33.3940137,149.0967575,171,68.4,79,31.6,250,103041079,Orange Region,1RNSW,New South Wales,4480.0957
537,NSW,Calare,2223,Stuart Town,Stuart Town Public School,STUART TOWN,2820.0,-32.8023,149.069,144,67.29,70,32.71,214,105031106,Wellington,1RNSW,New South Wales,3603.4369
538,NSW,Calare,14036,Sydney (Calare),Sydney Town Hall,SYDNEY,2000.0,-33.8730501,151.20645280000002,9,45.0,11,55.0,20,117031337,Sydney - Haymarket - The Rocks,1GSYD,New South Wales,4.2934
539,NSW,Calare,1808,Trunkey,Trunkey Public School,TRUNKEY CREEK,2795.0,-33.8222481,149.32880649999998,83,82.18,18,17.82,101,103011060,Bathurst Region,1RNSW,New South Wales,3798.2628
540,NSW,Calare,306,Tweed Mills,Fatima Hall,LITHGOW,2790.0,-33.4848816,150.1348122,296,54.81,244,45.19,540,103031070,Lithgow,1RNSW,New South Wales,119.9844
541,NSW,Calare,307,Ulan,Ulan Public School,ULAN,2850.0,-32.2822,149.743,72,62.07,44,37.93,116,103031074,Mudgee Region - West,1RNSW,New South Wales,8043.8635
542,NSW,Calare,309,Wallerawang,Wallerawang Public School,WALLERAWANG,2845.0,-33.4196,150.071,560,62.64,334,37.36,894,103031071,Lithgow Region,1RNSW,New South Wales,2514.07
543,NSW,Calare,83290,Waratah North Orange,Integra Health Club,ORANGE,2800.0,-33.246382000000004,149.104804,149,64.5,82,35.5,231,103041078,Orange - North,1RNSW,New South Wales,99.5118
544,NSW,Calare,310,Wattle Flat,Wattle Flat Public School,WATTLE FLAT,2795.0,-33.1422,149.692,136,63.55,78,36.45,214,103011060,Bathurst Region,1RNSW,New South Wales,3798.2628
545,NSW,Calare,2235,Wellington,Wellington Public School,WELLINGTON,2820.0,-32.55762369999999,148.9420174,936,64.91,506,35.09,1442,105031106,Wellington,1RNSW,New South Wales,3603.4369
546,NSW,Calare,2236,Wellington East,Wellington Scout Hall,WELLINGTON,2820.0,-32.5551,148.952,771,61.93,474,38.07,1245,105031106,Wellington,1RNSW,New South Wales,3603.4369
547,NSW,Calare,311,Windeyer,Windeyer Recreational Hall,WINDEYER,2850.0,-32.795688,149.557345,27,64.29,15,35.71,42,103031074,Mudgee Region - West,1RNSW,New South Wales,8043.8635
548,NSW,Calare,2240,Yeoval,Yeoval Central School,YEOVAL,2868.0,-32.7549609,148.6500868,260,80.25,64,19.75,324,105031106,Wellington,1RNSW,New South Wales,3603.4369
549,NSW,Calare,261,Yetholme,Yetholme Community Hall,YETHOLME,2795.0,-33.4478,149.817,117,66.1,60,33.9,177,103011060,Bathurst Region,1RNSW,New South Wales,3798.2628
550,NSW,Chifley,413,Arndell Park North,Evans High School,BLACKTOWN,2148.0,-33.78707,150.89061,874,40.59,1279,59.41,2153,116011561,Blacktown (West),1GSYD,New South Wales,4.6753
551,NSW,Chifley,385,Bidwill,Bidwill Public School,BIDWILL,2770.0,-33.7339,150.826,460,32.6,951,67.4,1411,116031313,Bidwill - Hebersham - Emerton,1GSYD,New South Wales,6.095
552,NSW,Chifley,386,Blackett,Blackett Public School,BLACKETT,2770.0,-33.7395,150.816,363,28.79,898,71.21,1261,116031313,Bidwill - Hebersham - Emerton,1GSYD,New South Wales,6.095
553,NSW,Chifley,58585,Blacktown CHIFLEY PPVC,"Level 1, 22 Main St",BLACKTOWN,2148.0,-33.7691823,150.9075553,4005,37.79,6594,62.21,10599,116011303,Blacktown (East) - Kings Park,1GSYD,New South Wales,7.9753
554,NSW,Chifley,388,Blacktown South (Chifley),Blacktown South Public School,BLACKTOWN,2148.0,-33.78035,150.9058,103,34.68,194,65.32,297,116011560,Blacktown (South),1GSYD,New South Wales,3.3594
555,NSW,Chifley,12049,Blacktown West,Blacktown West Public School,BLACKTOWN,2148.0,-33.7705,150.893,796,38.68,1262,61.32,2058,116011561,Blacktown (West),1GSYD,New South Wales,4.6753
556,NSW,Chifley,65405,BLV Chifley PPVC,BLV Chifley,PENRITH,2750.0,-33.752016999999995,150.690599,6,26.09,17,73.91,23,124031464,Penrith,1GSYD,New South Wales,10.3941
557,NSW,Chifley,1027,Dean Park,William Dean Public School,DEAN PARK,2761.0,-33.7339,150.858,1036,44.44,1295,55.56,2331,116031314,Glendenning - Dean Park,1GSYD,New South Wales,5.1425
558,NSW,Chifley,392,Dharruk,Dawson Public School,DHARRUK,2770.0,-33.7475,150.817,364,29.89,854,70.11,1218,116031313,Bidwill - Hebersham - Emerton,1GSYD,New South Wales,6.095
559,NSW,Chifley,30102,Divisional Office (PREPOLL),Divisional Office,PENRITH,2750.0,-33.752158,150.690381,15,41.67,21,58.33,36,124031464,Penrith,1GSYD,New South Wales,10.3941
560,NSW,Chifley,393,Doonside,Doonside Public School,DOONSIDE,2767.0,-33.765,150.872,689,34.87,1287,65.13,1976,116011306,Doonside - Woodcroft,1GSYD,New South Wales,9.9106
561,NSW,Chifley,83628,Doonside Central,Crawford Public School,DOONSIDE,2767.0,-33.7552034,150.86427319999999,133,31.37,291,68.63,424,116011306,Doonside - Woodcroft,1GSYD,New South Wales,9.9106
562,NSW,Chifley,1028,Doonside North,Doonside Technology High School,DOONSIDE,2767.0,-33.7563,150.875,1006,36.14,1778,63.86,2784,116011306,Doonside - Woodcroft,1GSYD,New South Wales,9.9106
563,NSW,Chifley,83627,Doonside South,Tyndale Christian School,BLACKTOWN,2148.0,-33.783181299999995,150.8855827,366,48.93,382,51.07,748,116011561,Blacktown (West),1GSYD,New South Wales,4.6753
564,NSW,Chifley,31463,Glendenning,Glendenning Public School,GLENDENNING,2761.0,-33.7425,150.852,676,32.86,1381,67.14,2057,116031314,Glendenning - Dean Park,1GSYD,New South Wales,5.1425
565,NSW,Chifley,31030,Hassall Grove,Hassall Grove Public School,HASSALL GROVE,2761.0,-33.7361,150.84,1013,34.7,1906,65.3,2919,116031315,Hassall Grove - Plumpton,1GSYD,New South Wales,6.2053
566,NSW,Chifley,397,Hebersham,Hebersham Public School,HEBERSHAM,2770.0,-33.7477,150.825,512,29.75,1209,70.25,1721,116031313,Bidwill - Hebersham - Emerton,1GSYD,New South Wales,6.095
567,NSW,Chifley,399,Lethbridge Park,Lethbridge Park Public School,LETHBRIDGE PARK,2770.0,-33.7381603,150.8008757,497,32.63,1026,67.37,1523,116031316,Lethbridge Park - Tregear,1GSYD,New South Wales,11.2672
568,NSW,Chifley,1036,Marayong,Marayong Public School,BLACKTOWN,2148.0,-33.7565,150.895,586,36.99,998,63.01,1584,116011304,Blacktown (North) - Marayong,1GSYD,New South Wales,7.3829
569,NSW,Chifley,1037,Marayong Heights,Marayong Heights Public School,MARAYONG,2148.0,-33.7429,150.89600000000002,322,40.4,475,59.6,797,116011304,Blacktown (North) - Marayong,1GSYD,New South Wales,7.3829
570,NSW,Chifley,1038,Marayong South,Marayong South Public School,BLACKTOWN,2148.0,-33.7606,150.885,384,38.06,625,61.94,1009,116011306,Doonside - Woodcroft,1GSYD,New South Wales,9.9106
571,NSW,Chifley,1030,Marayong West,St Andrew's Primary School,MARAYONG,2148.0,-33.7476227,150.8914958,639,42.63,860,57.37,1499,116011304,Blacktown (North) - Marayong,1GSYD,New South Wales,7.3829
572,NSW,Chifley,1039,Marsden Park,Marsden Park Public School,MARSDEN PARK,2765.0,-33.696,150.834,999,53.05,884,46.95,1883,116021312,Riverstone - Marsden Park,1GSYD,New South Wales,79.421
573,NSW,Chifley,83687,Minchinbury (Chifley),Minchinbury Public School,MINCHINBURY,2770.0,-33.7875,150.83100000000002,97,40.59,142,59.41,239,116031319,Rooty Hill - Minchinbury,1GSYD,New South Wales,14.6244
